%time,field.header.seq,field.header.stamp,field.header.frame_id,field.orientation.x,field.orientation.y,field.orientation.z,field.orientation.w,field.orientation_covariance0,field.orientation_covariance1,field.orientation_covariance2,field.orientation_covariance3,field.orientation_covariance4,field.orientation_covariance5,field.orientation_covariance6,field.orientation_covariance7,field.orientation_covariance8,field.angular_velocity.x,field.angular_velocity.y,field.angular_velocity.z,field.angular_velocity_covariance0,field.angular_velocity_covariance1,field.angular_velocity_covariance2,field.angular_velocity_covariance3,field.angular_velocity_covariance4,field.angular_velocity_covariance5,field.angular_velocity_covariance6,field.angular_velocity_covariance7,field.angular_velocity_covariance8,field.linear_acceleration.x,field.linear_acceleration.y,field.linear_acceleration.z,field.linear_acceleration_covariance0,field.linear_acceleration_covariance1,field.linear_acceleration_covariance2,field.linear_acceleration_covariance3,field.linear_acceleration_covariance4,field.linear_acceleration_covariance5,field.linear_acceleration_covariance6,field.linear_acceleration_covariance7,field.linear_acceleration_covariance8
1598621623163885961,4112,1598621623163283454,xsense,0.290750599546,-0.63171669085,0.282832195028,0.660608856147,-1.0,0.0,0.0,0.0,0.0,0.0,0.0,0.0,0.0,0.00150445949879,-0.00159069571921,-0.00149244121563,-1.0,0.0,0.0,0.0,0.0,0.0,0.0,0.0,0.0,9.87056078366,0.271024765228,0.2977654129,-1.0,0.0,0.0,0.0,0.0,0.0,0.0,0.0,0.0
1598621623164519325,4113,1598621623164144217,xsense,0.29074486997,-0.631718218245,0.282835931962,0.660608317322,-1.0,0.0,0.0,0.0,0.0,0.0,0.0,0.0,0.0,3.69453256089e-05,-0.00152382791597,9.34297579353e-05,-1.0,0.0,0.0,0.0,0.0,0.0,0.0,0.0,0.0,9.82194140783,0.269229798986,0.301683013176,-1.0,0.0,0.0,0.0,0.0,0.0,0.0,0.0,0.0
1598621623165569601,4114,1598621623165132946,xsense,0.290740141353,-0.631714499035,0.282835449527,0.660614161524,-1.0,0.0,0.0,0.0,0.0,0.0,0.0,0.0,0.0,-5.9719410391e-05,-9.61180324037e-05,-0.0015220393292,-1.0,0.0,0.0,0.0,0.0,0.0,0.0,0.0,0.0,9.84743187697,0.246030535264,0.302547398205,-1.0,0.0,0.0,0.0,0.0,0.0,0.0,0.0,0.0
1598621623165714791,4115,1598621623165530404,xsense,0.290745358793,-0.631718224806,0.282844428706,0.660604458007,-1.0,0.0,0.0,0.0,0.0,0.0,0.0,0.0,0.0,0.00160113952153,-0.00301839728257,0.000123013505224,-1.0,0.0,0.0,0.0,0.0,0.0,0.0,0.0,0.0,9.851246196,0.252235320567,0.350683339955,-1.0,0.0,0.0,0.0,0.0,0.0,0.0,0.0,0.0
1598621623203691324,4116,1598621623203232275,xsense,0.290740630852,-0.631714505485,0.282843945915,0.660610302214,-1.0,0.0,0.0,0.0,0.0,0.0,0.0,0.0,0.0,-5.97417122125e-05,-9.61306552065e-05,-0.00152203791247,-1.0,0.0,0.0,0.0,0.0,0.0,0.0,0.0,0.0,9.84934387145,0.249239948868,0.326382445162,-1.0,0.0,0.0,0.0,0.0,0.0,0.0,0.0,0.0
1598621623204152604,4117,1598621623203821655,xsense,0.290752243438,-0.631722548663,0.282837364112,0.660600317824,-1.0,0.0,0.0,0.0,0.0,0.0,0.0,0.0,0.0,0.00151865767251,-0.00473447929999,-0.00282762684407,-1.0,0.0,0.0,0.0,0.0,0.0,0.0,0.0,0.0,9.8481663854,0.273659140674,0.323161443846,-1.0,0.0,0.0,0.0,0.0,0.0,0.0,0.0,0.0
1598621623205082905,4118,1598621623204805551,xsense,0.290750279703,-0.631711902245,0.282833315035,0.660613096541,-1.0,0.0,0.0,0.0,0.0,0.0,0.0,0.0,0.0,-0.000156544158463,0.0013315383934,-0.0031375231908,-1.0,0.0,0.0,0.0,0.0,0.0,0.0,0.0,0.0,9.84625685989,0.270887646294,0.29884659668,-1.0,0.0,0.0,0.0,0.0,0.0,0.0,0.0,0.0
1598621623205849735,4119,1598621623205497334,xsense,0.290754604058,-0.631709381803,0.282839078142,0.660611136022,-1.0,0.0,0.0,0.0,0.0,0.0,0.0,0.0,0.0,-2.27413493555e-05,-0.00161997248988,-0.00142858857985,-1.0,0.0,0.0,0.0,0.0,0.0,0.0,0.0,0.0,9.82384712191,0.273244201511,0.325016775369,-1.0,0.0,0.0,0.0,0.0,0.0,0.0,0.0,0.0
1598621623208560577,4120,1598621623208116521,xsense,0.290757063186,-0.631708429745,0.28284146099,0.660609943871,-1.0,0.0,0.0,0.0,0.0,0.0,0.0,0.0,0.0,0.00150448109486,-0.00159064871041,-0.00149249646615,-1.0,0.0,0.0,0.0,0.0,0.0,0.0,0.0,0.0,9.84934077688,0.250123361788,0.325799505541,-1.0,0.0,0.0,0.0,0.0,0.0,0.0,0.0,0.0
1598621623244485517,4121,1598621623244250982,xsense,0.290757299672,-0.631707473002,0.282853055123,0.660605790505,-1.0,0.0,0.0,0.0,0.0,0.0,0.0,0.0,0.0,0.0015642659671,-0.00149449186708,2.95391161127e-05,-1.0,0.0,0.0,0.0,0.0,0.0,0.0,0.0,0.0,9.84625456012,0.271334800417,0.298516518978,-1.0,0.0,0.0,0.0,0.0,0.0,0.0,0.0,0.0
1598621623245280616,4122,1598621623244729380,xsense,0.290753030365,-0.631703214551,0.28286258356,0.660607661839,-1.0,0.0,0.0,0.0,0.0,0.0,0.0,0.0,0.0,0.00152722124855,2.93339667143e-05,-6.39318966051e-05,-1.0,0.0,0.0,0.0,0.0,0.0,0.0,0.0,0.0,9.82312792251,0.246202845273,0.30346217979,-1.0,0.0,0.0,0.0,0.0,0.0,0.0,0.0,0.0
1598621623247682849,4123,1598621623247306203,xsense,0.290753563306,-0.63170340386,0.282845591871,0.66061452159,-1.0,0.0,0.0,0.0,0.0,0.0,0.0,0.0,0.0,-0.000142332619948,-0.00181237290724,-0.00447262189157,-1.0,0.0,0.0,0.0,0.0,0.0,0.0,0.0,0.0,9.87247170113,0.275571548087,0.320455803809,-1.0,0.0,0.0,0.0,0.0,0.0,0.0,0.0,0.0
1598621623248161732,4124,1598621623247849354,xsense,0.290748834448,-0.631699684731,0.282845109203,0.660620365851,-1.0,0.0,0.0,0.0,0.0,0.0,0.0,0.0,0.0,-5.98032797372e-05,-9.61834839118e-05,-0.00152203471356,-1.0,0.0,0.0,0.0,0.0,0.0,0.0,0.0,0.0,9.84743115928,0.247659031623,0.30123925928,-1.0,0.0,0.0,0.0,0.0,0.0,0.0,0.0,0.0
1598621623293754568,4125,1598621623293420597,xsense,0.290778085793,-0.631679446688,0.282879452896,0.660612137781,-1.0,0.0,0.0,0.0,0.0,0.0,0.0,0.0,0.0,-5.98025537055e-05,-9.61839576245e-05,-0.00152203496802,-1.0,0.0,0.0,0.0,0.0,0.0,0.0,0.0,0.0,9.84624405334,0.272011021772,0.298247539228,-1.0,0.0,0.0,0.0,0.0,0.0,0.0,0.0,0.0
1598621623294154996,4126,1598621623293956983,xsense,0.290787731952,-0.631681260391,0.282884701534,0.66060390996,-1.0,0.0,0.0,0.0,0.0,0.0,0.0,0.0,0.0,0.00306885129458,-0.00308505398074,-0.00146297154407,-1.0,0.0,0.0,0.0,0.0,0.0,0.0,0.0,0.0,9.8493370574,0.251029296662,0.325214668914,-1.0,0.0,0.0,0.0,0.0,0.0,0.0,0.0,0.0
1598621623297039348,4127,1598621623296697324,xsense,0.290807606408,-0.631684835458,0.282905053326,0.660583026962,-1.0,0.0,0.0,0.0,0.0,0.0,0.0,0.0,0.0,0.000111361088205,-0.00457147495646,0.000280504690901,-1.0,0.0,0.0,0.0,0.0,0.0,0.0,0.0,0.0,9.82503754764,0.25015473949,0.326875136766,-1.0,0.0,0.0,0.0,0.0,0.0,0.0,0.0,0.0
1598621623297538127,4128,1598621623297243137,xsense,0.290817253592,-0.631686648506,0.282910301101,0.660574798674,-1.0,0.0,0.0,0.0,0.0,0.0,0.0,0.0,0.0,0.00306882447308,-0.00308506624425,-0.00146304380991,-1.0,0.0,0.0,0.0,0.0,0.0,0.0,0.0,0.0,9.84744885875,0.248086245935,0.30030771066,-1.0,0.0,0.0,0.0,0.0,0.0,0.0,0.0,0.0
1598621623332961597,4129,1598621623332824894,xsense,0.290849682813,-0.631675790251,0.28294240795,0.660557152563,-1.0,0.0,0.0,0.0,0.0,0.0,0.0,0.0,0.0,1.4391619637e-05,-0.00314388457057,-0.00133498306786,-1.0,0.0,0.0,0.0,0.0,0.0,0.0,0.0,0.0,9.87249087282,0.276439324055,0.319114942871,-1.0,0.0,0.0,0.0,0.0,0.0,0.0,0.0,0.0
1598621623333168636,4130,1598621623333015463,xsense,0.290848175759,-0.631664603857,0.282948369936,0.660565959494,-1.0,0.0,0.0,0.0,0.0,0.0,0.0,0.0,0.0,0.00143016651447,0.00145700812973,-0.00167960684769,-1.0,0.0,0.0,0.0,0.0,0.0,0.0,0.0,0.0,9.82505421232,0.250510958388,0.326100495363,-1.0,0.0,0.0,0.0,0.0,0.0,0.0,0.0,0.0
1598621623333505751,4131,1598621623333405107,xsense,0.290835622,-0.631676735804,0.282942253148,0.660562505599,-1.0,0.0,0.0,0.0,0.0,0.0,0.0,0.0,0.0,0.00160154052964,-0.00301821998551,0.00012302257514,-1.0,0.0,0.0,0.0,0.0,0.0,0.0,0.0,0.0,9.84936506112,0.25153125874,0.323976349809,-1.0,0.0,0.0,0.0,0.0,0.0,0.0,0.0,0.0
1598621623333675913,4132,1598621623333569370,xsense,0.290826892017,-0.631692527498,0.282937103141,0.660553453741,-1.0,0.0,0.0,0.0,0.0,0.0,0.0,0.0,0.0,-0.00141572911982,-0.00460090324747,0.000344702021386,-1.0,0.0,0.0,0.0,0.0,0.0,0.0,0.0,0.0,9.85129004314,0.254579377448,0.347745470162,-1.0,0.0,0.0,0.0,0.0,0.0,0.0,0.0,0.0
1598621623334481080,4133,1598621623334378859,xsense,0.290810375807,-0.631688551748,0.282938773536,0.660563811713,-1.0,0.0,0.0,0.0,0.0,0.0,0.0,0.0,0.0,-0.00156437926136,0.00149440014565,-2.94300681532e-05,-1.0,0.0,0.0,0.0,0.0,0.0,0.0,0.0,0.0,9.82580004962,0.277821854236,0.346657312866,-1.0,0.0,0.0,0.0,0.0,0.0,0.0,0.0,0.0
1598621623372793584,4134,1598621623372656278,xsense,0.290818040013,-0.631685247509,0.282945810518,0.660560583136,-1.0,0.0,0.0,0.0,0.0,0.0,0.0,0.0,0.0,0.00303165887765,-0.00156120967922,-0.00155668890098,-1.0,0.0,0.0,0.0,0.0,0.0,0.0,0.0,0.0,9.85129394095,0.254639346351,0.347591089166,-1.0,0.0,0.0,0.0,0.0,0.0,0.0,0.0,0.0
1598621623372918245,4135,1598621623372783842,xsense,0.290823409818,-0.631688277716,0.282937900848,0.660558709247,-1.0,0.0,0.0,0.0,0.0,0.0,0.0,0.0,0.0,0.00148167489696,-0.00321073567508,-0.00292106906141,-1.0,0.0,0.0,0.0,0.0,0.0,0.0,0.0,0.0,9.84628421697,0.27292709312,0.296076819185,-1.0,0.0,0.0,0.0,0.0,0.0,0.0,0.0,0.0
1598621623373543872,4136,1598621623373419188,xsense,0.290823885846,-0.631682207808,0.282942072492,0.660562517385,-1.0,0.0,0.0,0.0,0.0,0.0,0.0,0.0,0.0,0.00146724691545,-6.68148615434e-05,-0.00158615375044,-1.0,0.0,0.0,0.0,0.0,0.0,0.0,0.0,0.0,9.8269864576,0.254154860565,0.349231062478,-1.0,0.0,0.0,0.0,0.0,0.0,0.0,0.0,0.0
1598621623373651967,4137,1598621623373584140,xsense,0.290820902637,-0.63168526665,0.282938979927,0.66056223032,-1.0,0.0,0.0,0.0,0.0,0.0,0.0,0.0,0.0,0.00150446181908,-0.00159064037275,-0.00149258923944,-1.0,0.0,0.0,0.0,0.0,0.0,0.0,0.0,0.0,9.84938201269,0.252179627655,0.322955347532,-1.0,0.0,0.0,0.0,0.0,0.0,0.0,0.0,0.0
1598621623421957323,4138,1598621623421793318,xsense,0.290825664356,-0.631677927831,0.282927783978,0.660571947252,-1.0,0.0,0.0,0.0,0.0,0.0,0.0,0.0,0.0,-0.000179935542855,-0.000288894122044,-0.00456607097326,-1.0,0.0,0.0,0.0,0.0,0.0,0.0,0.0,0.0,9.85129094642,0.255552409686,0.347005389378,-1.0,0.0,0.0,0.0,0.0,0.0,0.0,0.0,0.0
1598621623422283761,4139,1598621623422165978,xsense,0.290826340327,-0.631670673398,0.282943729126,0.660571757109,-1.0,0.0,0.0,0.0,0.0,0.0,0.0,0.0,0.0,0.00152721619468,2.95147377791e-05,-6.41447203644e-05,-1.0,0.0,0.0,0.0,0.0,0.0,0.0,0.0,0.0,9.87559538783,0.25672444686,0.344944430952,-1.0,0.0,0.0,0.0,0.0,0.0,0.0,0.0,0.0
1598621623423015958,4140,1598621623422841736,xsense,0.29081608712,-0.631680808203,0.282950381104,0.660563730349,-1.0,0.0,0.0,0.0,0.0,0.0,0.0,0.0,0.0,0.000134501643683,-0.00295133544111,0.00170919523053,-1.0,0.0,0.0,0.0,0.0,0.0,0.0,0.0,0.0,9.84819015391,0.276833634062,0.319714895433,-1.0,0.0,0.0,0.0,0.0,0.0,0.0,0.0,0.0
1598621623423098265,4141,1598621623423017985,xsense,0.290819443224,-0.631686004587,0.282949477251,0.660557670741,-1.0,0.0,0.0,0.0,0.0,0.0,0.0,0.0,0.0,1.45029293512e-05,-0.00314395868418,-0.00133485026795,-1.0,0.0,0.0,0.0,0.0,0.0,0.0,0.0,0.0,9.82389058285,0.275874071287,0.321462114707,-1.0,0.0,0.0,0.0,0.0,0.0,0.0,0.0,0.0
1598621623463583277,4142,1598621623463087871,xsense,0.290819919286,-0.631679935057,0.282953648477,0.660561478597,-1.0,0.0,0.0,0.0,0.0,0.0,0.0,0.0,0.0,0.00146719166455,-6.68003080114e-05,-0.00158621308918,-1.0,0.0,0.0,0.0,0.0,0.0,0.0,0.0,0.0,9.8493905548,0.252760049491,0.322240294758,-1.0,0.0,0.0,0.0,0.0,0.0,0.0,0.0,0.0
1598621623464222241,4143,1598621623463831935,xsense,0.29083796405,-0.631665724417,0.282974683418,0.660558112362,-1.0,0.0,0.0,0.0,0.0,0.0,0.0,0.0,0.0,0.00146719312307,-6.680126194e-05,-0.00158621360218,-1.0,0.0,0.0,0.0,0.0,0.0,0.0,0.0,0.0,9.82580247901,0.279253745568,0.345435782388,-1.0,0.0,0.0,0.0,0.0,0.0,0.0,0.0,0.0
1598621623465349234,4144,1598621623464912334,xsense,0.290832457307,-0.631674048924,0.282975978755,0.660552021524,-1.0,0.0,0.0,0.0,0.0,0.0,0.0,0.0,0.0,7.45784139418e-05,-0.00304764548524,0.000187214656711,-1.0,0.0,0.0,0.0,0.0,0.0,0.0,0.0,0.0,9.87369973391,0.253934607479,0.320026301652,-1.0,0.0,0.0,0.0,0.0,0.0,0.0,0.0,0.0
1598621623466016171,4145,1598621623465335820,xsense,0.290833835443,-0.631674420653,0.282976671256,0.660550762606,-1.0,0.0,0.0,0.0,0.0,0.0,0.0,0.0,0.0,0.00150446065445,-0.00159062764282,-0.00149262950615,-1.0,0.0,0.0,0.0,0.0,0.0,0.0,0.0,0.0,9.8262760389,0.227915393633,0.326879790307,-1.0,0.0,0.0,0.0,0.0,0.0,0.0,0.0,0.0
1598621623503734914,4146,1598621623503256730,xsense,0.290833533998,-0.631680393478,0.282982620958,0.660542634683,-1.0,0.0,0.0,0.0,0.0,0.0,0.0,0.0,0.0,0.00160182206024,-0.00301810372706,0.000123006025456,-1.0,0.0,0.0,0.0,0.0,0.0,0.0,0.0,0.0,9.84940150268,0.253131666266,0.321613362614,-1.0,0.0,0.0,0.0,0.0,0.0,0.0,0.0,0.0
1598621623504597518,4147,1598621623504198358,xsense,0.290829748149,-0.631670234347,0.282966360544,0.660560982372,-1.0,0.0,0.0,0.0,0.0,0.0,0.0,0.0,0.0,-0.000217537264062,0.00123473847632,-0.00465968109114,-1.0,0.0,0.0,0.0,0.0,0.0,0.0,0.0,0.0,9.84820792569,0.277558672718,0.318536697756,-1.0,0.0,0.0,0.0,0.0,0.0,0.0,0.0,0.0
1598621623505701732,4148,1598621623505297342,xsense,0.290831430487,-0.631681322893,0.28297052189,0.660547855261,-1.0,0.0,0.0,0.0,0.0,0.0,0.0,0.0,0.0,0.00163923455292,-0.00454189086981,0.000216639154724,-1.0,0.0,0.0,0.0,0.0,0.0,0.0,0.0,0.0,9.85131514898,0.256652887559,0.345502845585,-1.0,0.0,0.0,0.0,0.0,0.0,0.0,0.0,0.0
1598621623506033066,4149,1598621623505640329,xsense,0.290839568355,-0.631671431437,0.282982183873,0.660548735368,-1.0,0.0,0.0,0.0,0.0,0.0,0.0,0.0,0.0,0.00299432919487,-3.72275730205e-05,-0.00165057375269,-1.0,0.0,0.0,0.0,0.0,0.0,0.0,0.0,0.0,9.82582021488,0.27998907202,0.344334307532,-1.0,0.0,0.0,0.0,0.0,0.0,0.0,0.0,0.0
1598621623506287525,4150,1598621623506068472,xsense,0.290834839752,-0.631667713509,0.282981700206,0.660554579914,-1.0,0.0,0.0,0.0,0.0,0.0,0.0,0.0,0.0,-6.00979650204e-05,-9.6398277002e-05,-0.00152201492175,-1.0,0.0,0.0,0.0,0.0,0.0,0.0,0.0,0.0,9.84940003602,0.253817410426,0.32111742935,-1.0,0.0,0.0,0.0,0.0,0.0,0.0,0.0,0.0
1598621623544192231,4151,1598621623543877150,xsense,0.290816070393,-0.631677109488,0.282973744178,0.66055726675,-1.0,0.0,0.0,0.0,0.0,0.0,0.0,0.0,0.0,3.73661809345e-05,-0.00152382067754,9.36610110298e-05,-1.0,0.0,0.0,0.0,0.0,0.0,0.0,0.0,0.0,9.82317388226,0.24986804737,0.298945073963,-1.0,0.0,0.0,0.0,0.0,0.0,0.0,0.0,0.0
1598621623545266960,4152,1598621623544773826,xsense,0.290816070393,-0.631677109488,0.282973744178,0.66055726675,-1.0,0.0,0.0,0.0,0.0,0.0,0.0,0.0,0.0,0.0,0.0,0.0,-1.0,0.0,0.0,0.0,0.0,0.0,0.0,0.0,0.0,9.87371280521,0.254827365223,0.318911430589,-1.0,0.0,0.0,0.0,0.0,0.0,0.0,0.0,0.0
1598621623547342531,4153,1598621623546996828,xsense,0.290791617706,-0.631690209051,0.282958008836,0.660562245437,-1.0,0.0,0.0,0.0,0.0,0.0,0.0,0.0,0.0,3.73669093643e-05,-0.00152382115433,9.36607543878e-05,-1.0,0.0,0.0,0.0,0.0,0.0,0.0,0.0,0.0,9.8482138176,0.278079777936,0.317899379213,-1.0,0.0,0.0,0.0,0.0,0.0,0.0,0.0,0.0
1598621623547790460,4154,1598621623547478699,xsense,0.290792094748,-0.631684140072,0.282962178882,0.660566052818,-1.0,0.0,0.0,0.0,0.0,0.0,0.0,0.0,0.0,0.00146709331811,-6.68046865895e-05,-0.00158631816852,-1.0,0.0,0.0,0.0,0.0,0.0,0.0,0.0,0.0,9.82317918153,0.249934518843,0.298715288311,-1.0,0.0,0.0,0.0,0.0,0.0,0.0,0.0,0.0
1598621623594288604,4155,1598621623593536327,xsense,0.290831382379,-0.631664897229,0.283004005055,0.660549239462,-1.0,0.0,0.0,0.0,0.0,0.0,0.0,0.0,0.0,-2.2739775681e-05,-0.00162023203478,-0.00142834209407,-1.0,0.0,0.0,0.0,0.0,0.0,0.0,0.0,0.0,9.85132369355,0.257181174546,0.344865772102,-1.0,0.0,0.0,0.0,0.0,0.0,0.0,0.0,0.0
1598621623596192823,4156,1598621623595743424,xsense,0.290829098065,-0.631665753501,0.283011743771,0.660546110775,-1.0,0.0,0.0,0.0,0.0,0.0,0.0,0.0,0.0,0.00156460571213,-0.00149420421579,2.93536320582e-05,-1.0,0.0,0.0,0.0,0.0,0.0,0.0,0.0,0.0,9.8494087016,0.254176680725,0.320566989417,-1.0,0.0,0.0,0.0,0.0,0.0,0.0,0.0,0.0
1598621623596710071,4157,1598621623596426128,xsense,0.290817678828,-0.631671719463,0.28300935151,0.660546458222,-1.0,0.0,0.0,0.0,0.0,0.0,0.0,0.0,0.0,-0.00148981977376,-0.00155343654736,0.00015801125238,-1.0,0.0,0.0,0.0,0.0,0.0,0.0,0.0,0.0,9.84822085512,0.278368638461,0.317428204904,-1.0,0.0,0.0,0.0,0.0,0.0,0.0,0.0,0.0
1598621623597444979,4158,1598621623597013533,xsense,0.290830090083,-0.63166660399,0.283011030002,0.660545166513,-1.0,0.0,0.0,0.0,0.0,0.0,0.0,0.0,0.0,0.00297151285981,-0.00165741765183,-0.00307903643272,-1.0,0.0,0.0,0.0,0.0,0.0,0.0,0.0,0.0,9.82391265296,0.277569645406,0.319320933161,-1.0,0.0,0.0,0.0,0.0,0.0,0.0,0.0,0.0
1598621623633392181,4159,1598621623633038175,xsense,0.290830095748,-0.631666563071,0.283021481871,0.660540724941,-1.0,0.0,0.0,0.0,0.0,0.0,0.0,0.0,0.0,0.00156463166502,-0.00149418354331,2.93382928152e-05,-1.0,0.0,0.0,0.0,0.0,0.0,0.0,0.0,0.0,9.82391344943,0.277726685948,0.319159829653,-1.0,0.0,0.0,0.0,0.0,0.0,0.0,0.0,0.0
1598621623633751045,4160,1598621623633522683,xsense,0.290829335614,-0.631673078433,0.283017421165,0.660536568894,-1.0,0.0,0.0,0.0,0.0,0.0,0.0,0.0,0.0,1.46654720902e-05,-0.00314408968077,-0.00133460248014,-1.0,0.0,0.0,0.0,0.0,0.0,0.0,0.0,0.0,9.82703319784,0.256669467389,0.346062402266,-1.0,0.0,0.0,0.0,0.0,0.0,0.0,0.0,0.0
1598621623634451785,4161,1598621623634313285,xsense,0.290860533295,-0.631645648741,0.283068181696,0.660527311403,-1.0,0.0,0.0,0.0,0.0,0.0,0.0,0.0,0.0,0.00149711385646,-1.85794769578e-05,-0.000825394868977,-1.0,0.0,0.0,0.0,0.0,0.0,0.0,0.0,0.0,9.84882625412,0.266790311022,0.318209990746,-1.0,0.0,0.0,0.0,0.0,0.0,0.0,0.0,0.0
1598621623634831259,4162,1598621623634642330,xsense,0.291196408949,-0.631551788057,0.283250865858,0.660390746004,-1.0,0.0,0.0,0.0,0.0,0.0,0.0,0.0,0.0,0.0031065699526,-0.00460862002331,-0.00136961474966,-1.0,0.0,0.0,0.0,0.0,0.0,0.0,0.0,0.0,9.82703902165,0.2569803173,0.345666120353,-1.0,0.0,0.0,0.0,0.0,0.0,0.0,0.0,0.0
1598621623683948284,4163,1598621623683572175,xsense,0.291203698364,-0.631549039907,0.283247791764,0.660391478377,-1.0,0.0,0.0,0.0,0.0,0.0,0.0,0.0,0.0,0.0014442145829,-0.00168715095347,-0.00301469094632,-1.0,0.0,0.0,0.0,0.0,0.0,0.0,0.0,0.0,9.87758382688,0.26217594057,0.365382413115,-1.0,0.0,0.0,0.0,0.0,0.0,0.0,0.0,0.0
1598621623686417246,4164,1598621623686019027,xsense,0.291235173077,-0.63154076522,0.283278902775,0.660372167092,-1.0,0.0,0.0,0.0,0.0,0.0,0.0,0.0,0.0,1.4730514409e-05,-0.00314414772328,-0.00133448871747,-1.0,0.0,0.0,0.0,0.0,0.0,0.0,0.0,0.0,9.82512479582,0.254340796846,0.320968938204,-1.0,0.0,0.0,0.0,0.0,0.0,0.0,0.0,0.0
1598621623687267185,4165,1598621623686872790,xsense,0.291236192517,-0.631534171435,0.283292985084,0.660371982356,-1.0,0.0,0.0,0.0,0.0,0.0,0.0,0.0,0.0,0.00305442409481,5.93939351988e-05,-0.00012893003644,-1.0,0.0,0.0,0.0,0.0,0.0,0.0,0.0,0.0,9.84824040716,0.279565577391,0.315765330926,-1.0,0.0,0.0,0.0,0.0,0.0,0.0,0.0,0.0
1598621623687832567,4166,1598621623687491282,xsense,0.291243248553,-0.631531697037,0.283309376303,0.660364204896,-1.0,0.0,0.0,0.0,0.0,0.0,0.0,0.0,0.0,0.0015647119458,-0.00149412103741,2.93150297945e-05,-1.0,0.0,0.0,0.0,0.0,0.0,0.0,0.0,0.0,9.85063520649,0.231176836661,0.321672376837,-1.0,0.0,0.0,0.0,0.0,0.0,0.0,0.0,0.0
1598621623722992834,4167,1598621623722451922,xsense,0.29123737191,-0.631540586575,0.283300561939,0.66036207668,-1.0,0.0,0.0,0.0,0.0,0.0,0.0,0.0,0.0,-0.00151248504311,-0.00317387740997,-0.00126994096593,-1.0,0.0,0.0,0.0,0.0,0.0,0.0,0.0,0.0,9.84944472103,0.255438487063,0.318450349108,-1.0,0.0,0.0,0.0,0.0,0.0,0.0,0.0,0.0
1598621623723540614,4168,1598621623723190884,xsense,0.291262701338,-0.631528374766,0.283327299743,0.660351112587,-1.0,0.0,0.0,0.0,0.0,0.0,0.0,0.0,0.0,0.00150442816603,-0.00159064945675,-0.00149272330271,-1.0,0.0,0.0,0.0,0.0,0.0,0.0,0.0,0.0,9.85137258317,0.258654536177,0.342358191295,-1.0,0.0,0.0,0.0,0.0,0.0,0.0,0.0,0.0
1598621623724661532,4169,1598621623724249299,xsense,0.29126279971,-0.631522867085,0.283321363747,0.660358883258,-1.0,0.0,0.0,0.0,0.0,0.0,0.0,0.0,0.0,-0.000120612437828,-0.000193098618723,-0.0030440012145,-1.0,0.0,0.0,0.0,0.0,0.0,0.0,0.0,0.0,9.8220156653,0.275971911953,0.29304969553,-1.0,0.0,0.0,0.0,0.0,0.0,0.0,0.0,0.0
1598621623725123383,4170,1598621623724769861,xsense,0.291270750588,-0.631517197004,0.283351361421,0.660347927779,-1.0,0.0,0.0,0.0,0.0,0.0,0.0,0.0,0.0,9.78546199007e-05,-0.00142726789505,0.0016157898713,-1.0,0.0,0.0,0.0,0.0,0.0,0.0,0.0,0.0,9.84944656282,0.255870449042,0.318046336532,-1.0,0.0,0.0,0.0,0.0,0.0,0.0,0.0,0.0
1598621623763717868,4171,1598621623763265325,xsense,0.291268552364,-0.631518072544,0.283358999658,0.660344782494,-1.0,0.0,0.0,0.0,0.0,0.0,0.0,0.0,0.0,0.00156474858357,-0.00149409113583,2.9263293922e-05,-1.0,0.0,0.0,0.0,0.0,0.0,0.0,0.0,0.0,9.84945331157,0.255792077846,0.317900341222,-1.0,0.0,0.0,0.0,0.0,0.0,0.0,0.0,0.0
1598621623764262561,4172,1598621623763848244,xsense,0.291313110227,-0.631504200165,0.283381556265,0.660328714015,-1.0,0.0,0.0,0.0,0.0,0.0,0.0,0.0,0.0,-0.000105905588916,-0.00333732289552,-0.00437839671519,-1.0,0.0,0.0,0.0,0.0,0.0,0.0,0.0,0.0,9.84945542459,0.25600857934,0.31766054145,-1.0,0.0,0.0,0.0,0.0,0.0,0.0,0.0,0.0
1598621623765262220,4173,1598621623764847259,xsense,0.291322846524,-0.631506021295,0.283386699215,0.660320469824,-1.0,0.0,0.0,0.0,0.0,0.0,0.0,0.0,0.0,0.00306922091964,-0.00308468225875,-0.00146352867953,-1.0,0.0,0.0,0.0,0.0,0.0,0.0,0.0,0.0,9.82514969072,0.255351416774,0.319400630988,-1.0,0.0,0.0,0.0,0.0,0.0,0.0,0.0,0.0
1598621623765584711,4174,1598621623765225542,xsense,0.291395643352,-0.631472160044,0.283460851809,0.660288903145,-1.0,0.0,0.0,0.0,0.0,0.0,0.0,0.0,0.0,-2.27824983661e-05,-0.00162040529886,-0.0014281756421,-1.0,0.0,0.0,0.0,0.0,0.0,0.0,0.0,0.0,9.84946189237,0.256448222509,0.317104860696,-1.0,0.0,0.0,0.0,0.0,0.0,0.0,0.0,0.0
1598621623768174861,4175,1598621623767841713,xsense,0.291396201555,-0.631466108029,0.283464924868,0.660292696082,-1.0,0.0,0.0,0.0,0.0,0.0,0.0,0.0,0.0,0.00146682586312,-6.68092414834e-05,-0.00158659683092,-1.0,0.0,0.0,0.0,0.0,0.0,0.0,0.0,0.0,9.85138708758,0.25968062723,0.34116197501,-1.0,0.0,0.0,0.0,0.0,0.0,0.0,0.0,0.0
1598621623804255583,4176,1598621623803878026,xsense,0.291425506192,-0.631457722488,0.283482440413,0.660280262485,-1.0,0.0,0.0,0.0,0.0,0.0,0.0,0.0,0.0,-4.55343959934e-05,-0.0032408357447,-0.00285632956941,-1.0,0.0,0.0,0.0,0.0,0.0,0.0,0.0,0.0,9.80084364604,0.254918512222,0.320977920429,-1.0,0.0,0.0,0.0,0.0,0.0,0.0,0.0,0.0
1598621623804625064,4177,1598621623804347394,xsense,0.291421321193,-0.631453483145,0.28349186972,0.660282115449,-1.0,0.0,0.0,0.0,0.0,0.0,0.0,0.0,0.0,0.0015272077907,2.98124139558e-05,-6.46260640488e-05,-1.0,0.0,0.0,0.0,0.0,0.0,0.0,0.0,0.0,9.84946157302,0.256966231279,0.31669516323,-1.0,0.0,0.0,0.0,0.0,0.0,0.0,0.0,0.0
1598621623806988395,4178,1598621623806470538,xsense,0.291477856039,-0.631415550168,0.283539441679,0.66027300979,-1.0,0.0,0.0,0.0,0.0,0.0,0.0,0.0,0.0,-0.000218846805857,0.00123397267477,-0.00465982727595,-1.0,0.0,0.0,0.0,0.0,0.0,0.0,0.0,0.0,9.84825216682,0.281400977637,0.313761917359,-1.0,0.0,0.0,0.0,0.0,0.0,0.0,0.0,0.0
1598621623807452095,4179,1598621623806947948,xsense,0.29148912119,-0.63142302569,0.283532782893,0.660263747211,-1.0,0.0,0.0,0.0,0.0,0.0,0.0,0.0,0.0,0.00151945209511,-0.00473482969912,-0.00282708866055,-1.0,0.0,0.0,0.0,0.0,0.0,0.0,0.0,0.0,9.8513765505,0.260654239447,0.340723526335,-1.0,0.0,0.0,0.0,0.0,0.0,0.0,0.0,0.0
1598621623853599377,4180,1598621623853206643,xsense,0.291521333041,-0.631408255515,0.283576618646,0.660244824748,-1.0,0.0,0.0,0.0,0.0,0.0,0.0,0.0,0.0,-0.00148950690438,-0.00155368393411,0.000158503650978,-1.0,0.0,0.0,0.0,0.0,0.0,0.0,0.0,0.0,9.82707568774,0.259832854516,0.342476540658,-1.0,0.0,0.0,0.0,0.0,0.0,0.0,0.0,0.0
1598621623854032306,4181,1598621623853691549,xsense,0.291518371644,-0.631421171432,0.283586027185,0.660229739142,-1.0,0.0,0.0,0.0,0.0,0.0,0.0,0.0,0.0,0.00170074239085,-0.00444496628541,0.00173884427581,-1.0,0.0,0.0,0.0,0.0,0.0,0.0,0.0,0.0,9.84946784513,0.257610101703,0.315976218636,-1.0,0.0,0.0,0.0,0.0,0.0,0.0,0.0,0.0
1598621623856274799,4182,1598621623855894973,xsense,0.291502781239,-0.63142947211,0.283568520307,0.660236203621,-1.0,0.0,0.0,0.0,0.0,0.0,0.0,0.0,0.0,0.0,0.0,0.0,-1.0,0.0,0.0,0.0,0.0,0.0,0.0,0.0,0.0,9.82516910291,0.256574732683,0.317819209707,-1.0,0.0,0.0,0.0,0.0,0.0,0.0,0.0,0.0
1598621623857101751,4183,1598621623856419705,xsense,0.291500124049,-0.631430891482,0.283566149594,0.66023703756,-1.0,0.0,0.0,0.0,0.0,0.0,0.0,0.0,0.0,-2.27795079845e-05,-0.00162044645367,-0.0014281424531,-1.0,0.0,0.0,0.0,0.0,0.0,0.0,0.0,0.0,9.8263724671,0.232444943066,0.320733694225,-1.0,0.0,0.0,0.0,0.0,0.0,0.0,0.0,0.0
1598621623892602905,4184,1598621623892166214,xsense,0.291429056443,-0.631465337581,0.283491867902,0.660267365033,-1.0,0.0,0.0,0.0,0.0,0.0,0.0,0.0,0.0,0.00150442658514,-0.0015905828686,-0.00149285469606,-1.0,0.0,0.0,0.0,0.0,0.0,0.0,0.0,0.0,9.8494791263,0.257743639523,0.31551530828,-1.0,0.0,0.0,0.0,0.0,0.0,0.0,0.0,0.0
1598621623893170345,4185,1598621623892676029,xsense,0.29143160292,-0.631464399445,0.283494148876,0.660266158913,-1.0,0.0,0.0,0.0,0.0,0.0,0.0,0.0,0.0,0.00150442878348,-0.00159058431356,-0.00149285547604,-1.0,0.0,0.0,0.0,0.0,0.0,0.0,0.0,0.0,9.82517241164,0.25694215689,0.317419844649,-1.0,0.0,0.0,0.0,0.0,0.0,0.0,0.0,0.0
1598621623894106348,4186,1598621623893803138,xsense,0.291557001895,-0.631404631131,0.283626700937,0.660211027587,-1.0,0.0,0.0,0.0,0.0,0.0,0.0,0.0,0.0,-2.27736443888e-05,-0.00162047116317,-0.00142811926911,-1.0,0.0,0.0,0.0,0.0,0.0,0.0,0.0,0.0,9.85261579635,0.236925382556,0.342330941089,-1.0,0.0,0.0,0.0,0.0,0.0,0.0,0.0,0.0
1598621623894775853,4187,1598621623894359444,xsense,0.291554805731,-0.631405505749,0.283634337798,0.660207880131,-1.0,0.0,0.0,0.0,0.0,0.0,0.0,0.0,0.0,0.00156494499999,-0.00149392055002,2.91208098259e-05,-1.0,0.0,0.0,0.0,0.0,0.0,0.0,0.0,0.0,9.84948469055,0.258112936409,0.315039352273,-1.0,0.0,0.0,0.0,0.0,0.0,0.0,0.0,0.0
1598621623897439703,4188,1598621623897104567,xsense,0.291607010521,-0.631380519668,0.283678292557,0.660189834161,-1.0,0.0,0.0,0.0,0.0,0.0,0.0,0.0,0.0,0.00144389784943,-0.00168725631404,-0.00301485746674,-1.0,0.0,0.0,0.0,0.0,0.0,0.0,0.0,0.0,9.84948584622,0.258264714646,0.314878804002,-1.0,0.0,0.0,0.0,0.0,0.0,0.0,0.0,0.0
1598621623933470526,4189,1598621623933091475,xsense,0.291602363731,-0.631376825757,0.28367771475,0.6601956676,-1.0,0.0,0.0,0.0,0.0,0.0,0.0,0.0,0.0,-6.0534596647e-05,-9.6680019999e-05,-0.0015219880581,-1.0,0.0,0.0,0.0,0.0,0.0,0.0,0.0,0.0,9.82517508299,0.257535690862,0.316855649581,-1.0,0.0,0.0,0.0,0.0,0.0,0.0,0.0,0.0
1598621623935760717,4190,1598621623935407653,xsense,0.291662644953,-0.631354992523,0.283744864128,0.660161061436,-1.0,0.0,0.0,0.0,0.0,0.0,0.0,0.0,0.0,0.00160276127705,-0.00301770285653,0.000123007373006,-1.0,0.0,0.0,0.0,0.0,0.0,0.0,0.0,0.0,9.85021220145,0.285845783312,0.335779503873,-1.0,0.0,0.0,0.0,0.0,0.0,0.0,0.0,0.0
1598621623936450707,4191,1598621623936006483,xsense,0.291659988423,-0.631356412157,0.283742493588,0.660161896291,-1.0,0.0,0.0,0.0,0.0,0.0,0.0,0.0,0.0,-2.27764860157e-05,-0.00162050848923,-0.00142808401595,-1.0,0.0,0.0,0.0,0.0,0.0,0.0,0.0,0.0,9.84635390889,0.279743215878,0.28726640016,-1.0,0.0,0.0,0.0,0.0,0.0,0.0,0.0,0.0
1598621623936828525,4192,1598621623936532622,xsense,0.291609630419,-0.63137442002,0.283694141195,0.66018770016,-1.0,0.0,0.0,0.0,0.0,0.0,0.0,0.0,0.0,-6.05677999039e-05,-9.66934005637e-05,-0.00152198640959,-1.0,0.0,0.0,0.0,0.0,0.0,0.0,0.0,0.0,9.82832091737,0.236703486081,0.343523418203,-1.0,0.0,0.0,0.0,0.0,0.0,0.0,0.0,0.0
1598621623963766825,4193,1598621623963281430,xsense,0.291606973903,-0.631375839573,0.283691770622,0.66018853463,-1.0,0.0,0.0,0.0,0.0,0.0,0.0,0.0,0.0,-2.27626526632e-05,-0.00162050967188,-0.00142808527472,-1.0,0.0,0.0,0.0,0.0,0.0,0.0,0.0,0.0,9.82518170217,0.2579630603,0.316302271511,-1.0,0.0,0.0,0.0,0.0,0.0,0.0,0.0,0.0
1598621623965659293,4194,1598621623965379439,xsense,0.291640594323,-0.63134806356,0.283735758319,0.660181343142,-1.0,0.0,0.0,0.0,0.0,0.0,0.0,0.0,0.0,-9.83940412749e-05,0.00142712091212,-0.00161588736313,-1.0,0.0,0.0,0.0,0.0,0.0,0.0,0.0,0.0,9.87499976798,0.235824923763,0.31515282998,-1.0,0.0,0.0,0.0,0.0,0.0,0.0,0.0,0.0
1598621623966568844,4195,1598621623966060528,xsense,0.291639928084,-0.631354596413,0.283731595273,0.66017717908,-1.0,0.0,0.0,0.0,0.0,0.0,0.0,0.0,0.0,1.50905235579e-05,-0.00314432586823,-0.00133418657951,-1.0,0.0,0.0,0.0,0.0,0.0,0.0,0.0,0.0,9.82517698801,0.258257199858,0.316208675739,-1.0,0.0,0.0,0.0,0.0,0.0,0.0,0.0,0.0
1598621624004330664,4196,1598621624003967710,xsense,0.29174601899,-0.63130023637,0.283845927347,0.660133139216,-1.0,0.0,0.0,0.0,0.0,0.0,0.0,0.0,0.0,-6.05881630456e-05,-9.66958405023e-05,-0.00152198648844,-1.0,0.0,0.0,0.0,0.0,0.0,0.0,0.0,0.0,9.85069326976,0.235154681515,0.316976655063,-1.0,0.0,0.0,0.0,0.0,0.0,0.0,0.0,0.0
1598621624004922053,4197,1598621624004502855,xsense,0.291762492505,-0.631305345062,0.283843914969,0.660121838147,-1.0,0.0,0.0,0.0,0.0,0.0,0.0,0.0,0.0,0.00304678698043,-0.00470485315369,-0.00289195434101,-1.0,0.0,0.0,0.0,0.0,0.0,0.0,0.0,0.0,9.82518030216,0.258618996455,0.315809776069,-1.0,0.0,0.0,0.0,0.0,0.0,0.0,0.0,0.0
1598621624007281326,4198,1598621624006836629,xsense,0.291718241651,-0.631315214685,0.283796277609,0.66015243695,-1.0,0.0,0.0,0.0,0.0,0.0,0.0,0.0,0.0,0.00136808175194,0.00136038618427,-0.0032027648631,-1.0,0.0,0.0,0.0,0.0,0.0,0.0,0.0,0.0,9.85141875407,0.262969130917,0.33771118819,-1.0,0.0,0.0,0.0,0.0,0.0,0.0,0.0,0.0
1598621624007435819,4199,1598621624007206788,xsense,0.291722779237,-0.631319387341,0.283796765026,0.660146231833,-1.0,0.0,0.0,0.0,0.0,0.0,0.0,0.0,0.0,0.00154239819154,-0.00311432290277,-0.00139898721946,-1.0,0.0,0.0,0.0,0.0,0.0,0.0,0.0,0.0,9.85020629467,0.287399950083,0.334624153376,-1.0,0.0,0.0,0.0,0.0,0.0,0.0,0.0,0.0
1598621624052972859,4200,1598621624052714845,xsense,0.291728573331,-0.631311329962,0.283806132436,0.66014734973,-1.0,0.0,0.0,0.0,0.0,0.0,0.0,0.0,0.0,-6.06293041236e-05,-9.67463324545e-05,-0.00152198321234,-1.0,0.0,0.0,0.0,0.0,0.0,0.0,0.0,0.0,9.85020746699,0.287546289322,0.334463875227,-1.0,0.0,0.0,0.0,0.0,0.0,0.0,0.0,0.0
1598621624053631851,4201,1598621624053176122,xsense,0.291737852772,-0.631313687809,0.283801263569,0.660143087248,-1.0,0.0,0.0,0.0,0.0,0.0,0.0,0.0,0.0,0.00148179850352,-0.00321106141345,-0.0029209744725,-1.0,0.0,0.0,0.0,0.0,0.0,0.0,0.0,0.0,9.84948241424,0.26048168597,0.313155276855,-1.0,0.0,0.0,0.0,0.0,0.0,0.0,0.0,0.0
1598621624055676465,4202,1598621624055391982,xsense,0.291711367646,-0.631321802223,0.28376617888,0.660162113233,-1.0,0.0,0.0,0.0,0.0,0.0,0.0,0.0,0.0,0.00140589960088,-0.000163439498889,-0.00310888006629,-1.0,0.0,0.0,0.0,0.0,0.0,0.0,0.0,0.0,9.85334956595,0.266957278936,0.361266704208,-1.0,0.0,0.0,0.0,0.0,0.0,0.0,0.0,0.0
1598621624056247152,4203,1598621624055849840,xsense,0.291701219772,-0.631331964826,0.283772728937,0.660154062992,-1.0,0.0,0.0,0.0,0.0,0.0,0.0,0.0,0.0,0.000136602165258,-0.00295085169308,0.00170990643798,-1.0,0.0,0.0,0.0,0.0,0.0,0.0,0.0,0.0,9.85141810453,0.263941728925,0.336970579506,-1.0,0.0,0.0,0.0,0.0,0.0,0.0,0.0,0.0
1598621624092876899,4204,1598621624092409344,xsense,0.291820317361,-0.63127730207,0.283885688445,0.660105132659,-1.0,0.0,0.0,0.0,0.0,0.0,0.0,0.0,0.0,0.00144382050625,-0.0016872679539,-0.00301493909381,-1.0,0.0,0.0,0.0,0.0,0.0,0.0,0.0,0.0,9.82518141316,0.259960893437,0.314671394465,-1.0,0.0,0.0,0.0,0.0,0.0,0.0,0.0,0.0
1598621624093445524,4205,1598621624093052835,xsense,0.291815670299,-0.631273610786,0.283885111652,0.660110965122,-1.0,0.0,0.0,0.0,0.0,0.0,0.0,0.0,0.0,-6.06823433841e-05,-9.67854475934e-05,-0.00152198018574,-1.0,0.0,0.0,0.0,0.0,0.0,0.0,0.0,0.0,9.84948530231,0.261146803242,0.312509803773,-1.0,0.0,0.0,0.0,0.0,0.0,0.0,0.0,0.0
1598621624094475927,4206,1598621624094033519,xsense,0.291714129201,-0.631316448482,0.283791721858,0.660155032781,-1.0,0.0,0.0,0.0,0.0,0.0,0.0,0.0,0.0,0.00152719812899,3.0124263978e-05,-6.49535679221e-05,-1.0,0.0,0.0,0.0,0.0,0.0,0.0,0.0,0.0,9.82711224629,0.26335408134,0.338717272372,-1.0,0.0,0.0,0.0,0.0,0.0,0.0,0.0,0.0
1598621624094825437,4207,1598621624094479276,xsense,0.291716677235,-0.631315508724,0.283794001882,0.66015382538,-1.0,0.0,0.0,0.0,0.0,0.0,0.0,0.0,0.0,0.00150452010342,-0.00159048489522,-0.00149294957932,-1.0,0.0,0.0,0.0,0.0,0.0,0.0,0.0,0.0,9.8475476858,0.258220459998,0.288283360714,-1.0,0.0,0.0,0.0,0.0,0.0,0.0,0.0,0.0
1598621624132967347,4208,1598621624132537359,xsense,0.291683895208,-0.631337711755,0.283755657349,0.660163559971,-1.0,0.0,0.0,0.0,0.0,0.0,0.0,0.0,0.0,1.53396236873e-05,-0.00314443162981,-0.00133398929499,-1.0,0.0,0.0,0.0,0.0,0.0,0.0,0.0,0.0,9.85142401506,0.264538757461,0.336329004586,-1.0,0.0,0.0,0.0,0.0,0.0,0.0,0.0,0.0
1598621624133730033,4209,1598621624133248525,xsense,0.291676036757,-0.631341494287,0.283748636616,0.660166432343,-1.0,0.0,0.0,0.0,0.0,0.0,0.0,0.0,0.0,-0.0015498829086,-0.00165076712586,-0.00136299398595,-1.0,0.0,0.0,0.0,0.0,0.0,0.0,0.0,0.0,9.85264187898,0.240470187539,0.339093252373,-1.0,0.0,0.0,0.0,0.0,0.0,0.0,0.0,0.0
1598621624134949857,4210,1598621624134599493,xsense,0.291516512013,-0.631416940651,0.283583398509,0.660235735456,-1.0,0.0,0.0,0.0,0.0,0.0,0.0,0.0,0.0,0.00303170778966,-0.00156030123869,-0.00155800254107,-1.0,0.0,0.0,0.0,0.0,0.0,0.0,0.0,0.0,9.82397202652,0.284963483331,0.310869761258,-1.0,0.0,0.0,0.0,0.0,0.0,0.0,0.0,0.0
1598621624135437356,4211,1598621624135194142,xsense,0.291524726315,-0.631413095397,0.283600337779,0.660228509926,-1.0,0.0,0.0,0.0,0.0,0.0,0.0,0.0,0.0,0.00461964666563,-0.00143331529975,-0.000101043228768,-1.0,0.0,0.0,0.0,0.0,0.0,0.0,0.0,0.0,9.84949507173,0.261820516101,0.311636968648,-1.0,0.0,0.0,0.0,0.0,0.0,0.0,0.0,0.0
1598621624138981753,4212,1598621624138701930,xsense,0.291574480534,-0.63138922268,0.283644218869,0.660210518612,-1.0,0.0,0.0,0.0,0.0,0.0,0.0,0.0,0.0,-0.00161063511947,-0.001747692362,-0.00288488238216,-1.0,0.0,0.0,0.0,0.0,0.0,0.0,0.0,0.0,9.82712755766,0.264099436521,0.337691169182,-1.0,0.0,0.0,0.0,0.0,0.0,0.0,0.0,0.0
1598621624174635836,4213,1598621624174157936,xsense,0.291570296802,-0.631384983575,0.283653647299,0.660212369555,-1.0,0.0,0.0,0.0,0.0,0.0,0.0,0.0,0.0,0.0015271968807,3.01865744223e-05,-6.50407565465e-05,-1.0,0.0,0.0,0.0,0.0,0.0,0.0,0.0,0.0,9.85143321998,0.265207255623,0.335531954361,-1.0,0.0,0.0,0.0,0.0,0.0,0.0,0.0,0.0
1598621624176835685,4214,1598621624176327160,xsense,0.291559503331,-0.631391077373,0.28364265211,0.660216032322,-1.0,0.0,0.0,0.0,0.0,0.0,0.0,0.0,0.0,0.0,0.0,0.0,-1.0,0.0,0.0,0.0,0.0,0.0,0.0,0.0,0.0,9.84949479403,0.262122980693,0.3113913844,-1.0,0.0,0.0,0.0,0.0,0.0,0.0,0.0,0.0
1598621624177340685,4215,1598621624176957650,xsense,0.291557309558,-0.631391951812,0.283650289732,0.660212883519,-1.0,0.0,0.0,0.0,0.0,0.0,0.0,0.0,0.0,0.00156527759372,-0.00149362317897,2.89964356635e-05,-1.0,0.0,0.0,0.0,0.0,0.0,0.0,0.0,0.0,9.85143562714,0.265214218978,0.335455768787,-1.0,0.0,0.0,0.0,0.0,0.0,0.0,0.0,0.0
1598621624178116105,4216,1598621624177783516,xsense,0.291430659344,-0.631452793564,0.283509202663,0.66027121117,-1.0,0.0,0.0,0.0,0.0,0.0,0.0,0.0,0.0,0.00144374275259,-0.00168736943806,-0.00301495046726,-1.0,0.0,0.0,0.0,0.0,0.0,0.0,0.0,0.0,9.82713040407,0.264403026714,0.337370619262,-1.0,0.0,0.0,0.0,0.0,0.0,0.0,0.0,0.0
1598621624223668626,4217,1598621624223205964,xsense,0.291441164479,-0.631442571544,0.283512566445,0.660274905745,-1.0,0.0,0.0,0.0,0.0,0.0,0.0,0.0,0.0,0.00293283979383,-0.000133357624815,-0.00317407784314,-1.0,0.0,0.0,0.0,0.0,0.0,0.0,0.0,0.0,9.84949290453,0.262587324294,0.311059766464,-1.0,0.0,0.0,0.0,0.0,0.0,0.0,0.0,0.0
1598621624224267683,4218,1598621624223908126,xsense,0.291343821931,-0.631500085083,0.283424258516,0.660300772108,-1.0,0.0,0.0,0.0,0.0,0.0,0.0,0.0,0.0,0.000175169208669,-0.00447451122553,0.0018042150885,-1.0,0.0,0.0,0.0,0.0,0.0,0.0,0.0,0.0,9.82834749977,0.240588736057,0.340046224423,-1.0,0.0,0.0,0.0,0.0,0.0,0.0,0.0,0.0
1598621624225199166,4219,1598621624224817167,xsense,0.291348661087,-0.631492771577,0.283412961068,0.660310480476,-1.0,0.0,0.0,0.0,0.0,0.0,0.0,0.0,0.0,-0.000182434122267,-0.000290730915409,-0.00456590996197,-1.0,0.0,0.0,0.0,0.0,0.0,0.0,0.0,0.0,9.85144204447,0.2658872398,0.334733783145,-1.0,0.0,0.0,0.0,0.0,0.0,0.0,0.0,0.0
1598621624225698326,4220,1598621624225320907,xsense,0.291379524312,-0.631483246046,0.283461884693,0.660284970828,-1.0,0.0,0.0,0.0,0.0,0.0,0.0,0.0,0.0,0.000137122222708,-0.00295070408944,0.00171012962283,-1.0,0.0,0.0,0.0,0.0,0.0,0.0,0.0,0.0,9.87575005379,0.266992673647,0.332496861452,-1.0,0.0,0.0,0.0,0.0,0.0,0.0,0.0,0.0
1598621624263855050,4221,1598621624263317816,xsense,0.291386351625,-0.631481045819,0.283448798516,0.660289679972,-1.0,0.0,0.0,0.0,0.0,0.0,0.0,0.0,0.0,-0.000144354331773,-0.0018145438068,-0.00447182886829,-1.0,0.0,0.0,0.0,0.0,0.0,0.0,0.0,0.0,9.82520076587,0.262107003318,0.312277748346,-1.0,0.0,0.0,0.0,0.0,0.0,0.0,0.0,0.0
1598621624265051386,4222,1598621624264606117,xsense,0.291439599201,-0.631451108179,0.283509032074,0.6602689503,-1.0,0.0,0.0,0.0,0.0,0.0,0.0,0.0,0.0,0.00146635125455,-6.66415931535e-05,-0.00158711064556,-1.0,0.0,0.0,0.0,0.0,0.0,0.0,0.0,0.0,9.85338405297,0.269556399905,0.358384619086,-1.0,0.0,0.0,0.0,0.0,0.0,0.0,0.0,0.0
1598621624265417217,4223,1598621624265075903,xsense,0.291442147063,-0.631450171106,0.283511312941,0.66026774248,-1.0,0.0,0.0,0.0,0.0,0.0,0.0,0.0,0.0,0.00150454575567,-0.00159044969444,-0.00149302194758,-1.0,0.0,0.0,0.0,0.0,0.0,0.0,0.0,0.0,9.85071916144,0.239330760174,0.313021742103,-1.0,0.0,0.0,0.0,0.0,0.0,0.0,0.0,0.0
1598621624268264065,4224,1598621624267934450,xsense,0.29136011915,-0.631489768945,0.283425735346,0.660302813284,-1.0,0.0,0.0,0.0,0.0,0.0,0.0,0.0,0.0,0.0,0.0,0.0,-1.0,0.0,0.0,0.0,0.0,0.0,0.0,0.0,0.0,9.82713615517,0.265730838622,0.33615766108,-1.0,0.0,0.0,0.0,0.0,0.0,0.0,0.0,0.0
1598621624268555662,4225,1598621624268370279,xsense,0.291363130021,-0.631488284435,0.283438025581,0.660297628907,-1.0,0.0,0.0,0.0,0.0,0.0,0.0,0.0,0.0,0.00309259680945,-0.00146322109106,-3.6209516131e-05,-1.0,0.0,0.0,0.0,0.0,0.0,0.0,0.0,0.0,9.82519705681,0.262644966585,0.311942242367,-1.0,0.0,0.0,0.0,0.0,0.0,0.0,0.0,0.0
1598621624304192307,4226,1598621624303479715,xsense,0.291357302565,-0.631485135372,0.283446371352,0.660299629422,-1.0,0.0,0.0,0.0,0.0,0.0,0.0,0.0,0.0,-0.00152719534455,-3.02917931311e-05,6.5166591568e-05,-1.0,0.0,0.0,0.0,0.0,0.0,0.0,0.0,0.0,9.85144729929,0.26670538497,0.333927260739,-1.0,0.0,0.0,0.0,0.0,0.0,0.0,0.0,0.0
1598621624304649072,4227,1598621624304218695,xsense,0.291356634608,-0.63149167225,0.283442212713,0.660295457656,-1.0,0.0,0.0,0.0,0.0,0.0,0.0,0.0,0.0,1.5550544668e-05,-0.00314456267491,-0.00133374422364,-1.0,0.0,0.0,0.0,0.0,0.0,0.0,0.0,0.0,9.84950885383,0.263672480351,0.309633524801,-1.0,0.0,0.0,0.0,0.0,0.0,0.0,0.0,0.0
1598621624306436907,4228,1598621624306154375,xsense,0.291371741924,-0.631484203506,0.283469319449,0.660284297604,-1.0,0.0,0.0,0.0,0.0,0.0,0.0,0.0,0.0,0.00156541433769,-0.00149350511366,2.89198830861e-05,-1.0,0.0,0.0,0.0,0.0,0.0,0.0,0.0,0.0,9.82715081261,0.265865582683,0.335622204182,-1.0,0.0,0.0,0.0,0.0,0.0,0.0,0.0,0.0
1598621624307304666,4229,1598621624306870959,xsense,0.291379031802,-0.631481456346,0.283466242065,0.660285029155,-1.0,0.0,0.0,0.0,0.0,0.0,0.0,0.0,0.0,0.001443619884,-0.00168743126872,-0.00301501099564,-1.0,0.0,0.0,0.0,0.0,0.0,0.0,0.0,0.0,9.82520924798,0.26292389189,0.311322685824,-1.0,0.0,0.0,0.0,0.0,0.0,0.0,0.0,0.0
1598621624353522183,4230,1598621624353240443,xsense,0.291431676371,-0.631457515547,0.283511477457,0.660265269582,-1.0,0.0,0.0,0.0,0.0,0.0,0.0,0.0,0.0,0.00297081913321,-0.0016571118452,-0.00308022872241,-1.0,0.0,0.0,0.0,0.0,0.0,0.0,0.0,0.0,9.84878967055,0.236905973605,0.287936079437,-1.0,0.0,0.0,0.0,0.0,0.0,0.0,0.0,0.0
1598621624354159553,4231,1598621624353804948,xsense,0.291427030172,-0.631453825713,0.283510896507,0.660271098595,-1.0,0.0,0.0,0.0,0.0,0.0,0.0,0.0,0.0,-6.09178941228e-05,-9.69997336435e-05,-0.00152196293656,-1.0,0.0,0.0,0.0,0.0,0.0,0.0,0.0,0.0,9.82714648446,0.266555261045,0.335201628125,-1.0,0.0,0.0,0.0,0.0,0.0,0.0,0.0,0.0
1598621624356359552,4232,1598621624356042922,xsense,0.291436559039,-0.631450755818,0.283520378612,0.660265757059,-1.0,0.0,0.0,0.0,0.0,0.0,0.0,0.0,0.0,-2.26346017142e-05,-0.00162080451911,-0.00142780934782,-1.0,0.0,0.0,0.0,0.0,0.0,0.0,0.0,0.0,9.84828633334,0.288771959217,0.30589349343,-1.0,0.0,0.0,0.0,0.0,0.0,0.0,0.0,0.0
1598621624356900275,4233,1598621624356586847,xsense,0.291437117743,-0.631444706018,0.283524448208,0.660269548678,-1.0,0.0,0.0,0.0,0.0,0.0,0.0,0.0,0.0,0.00146626549766,-6.66340174537e-05,-0.00158720560053,-1.0,0.0,0.0,0.0,0.0,0.0,0.0,0.0,0.0,9.82836608819,0.24265288391,0.338036312965,-1.0,0.0,0.0,0.0,0.0,0.0,0.0,0.0,0.0
1598621624392870984,4234,1598621624392415834,xsense,0.291447163603,-0.631451889265,0.28354813436,0.660248072979,-1.0,0.0,0.0,0.0,0.0,0.0,0.0,0.0,0.0,0.000175851189204,-0.00447439943755,0.00180445424979,-1.0,0.0,0.0,0.0,0.0,0.0,0.0,0.0,0.0,9.85023606606,0.292009312565,0.329721270489,-1.0,0.0,0.0,0.0,0.0,0.0,0.0,0.0,0.0
1598621624393395624,4235,1598621624393094824,xsense,0.29145200047,-0.631444577755,0.283536836843,0.660257782081,-1.0,0.0,0.0,0.0,0.0,0.0,0.0,0.0,0.0,-0.000182885994495,-0.00029104163392,-0.00456588319063,-1.0,0.0,0.0,0.0,0.0,0.0,0.0,0.0,0.0,9.85146218637,0.267947605332,0.332490536336,-1.0,0.0,0.0,0.0,0.0,0.0,0.0,0.0,0.0
1598621624394480225,4236,1598621624394169055,xsense,0.291412413006,-0.631469294747,0.283512695265,0.66026198358,-1.0,0.0,0.0,0.0,0.0,0.0,0.0,0.0,0.0,0.000137627086868,-0.00295059503655,0.00171028607739,-1.0,0.0,0.0,0.0,0.0,0.0,0.0,0.0,0.0,9.82521289825,0.264023691552,0.310274955393,-1.0,0.0,0.0,0.0,0.0,0.0,0.0,0.0,0.0
1598621624394930275,4237,1598621624394688204,xsense,0.291412508618,-0.631463794842,0.283506755412,0.66026975189,-1.0,0.0,0.0,0.0,0.0,0.0,0.0,0.0,0.0,-0.00012196836399,-0.000194030259654,-0.00304392098466,-1.0,0.0,0.0,0.0,0.0,0.0,0.0,0.0,0.0,9.87699576442,0.244925973999,0.333096650982,-1.0,0.0,0.0,0.0,0.0,0.0,0.0,0.0,0.0
1598621624432633330,4238,1598621624432390489,xsense,0.291412245059,-0.631458534172,0.283509553725,0.660273697793,-1.0,0.0,0.0,0.0,0.0,0.0,0.0,0.0,0.0,0.00146620776628,-6.66064952372e-05,-0.00158726491061,-1.0,0.0,0.0,0.0,0.0,0.0,0.0,0.0,0.0,9.82643376727,0.240121202602,0.313109949017,-1.0,0.0,0.0,0.0,0.0,0.0,0.0,0.0,0.0
1598621624432909599,4239,1598621624432695897,xsense,0.291414330168,-0.631458147817,0.283501825486,0.660276465335,-1.0,0.0,0.0,0.0,0.0,0.0,0.0,0.0,0.0,-8.3605662747e-05,-0.00171786061577,-0.00294974844862,-1.0,0.0,0.0,0.0,0.0,0.0,0.0,0.0,0.0,9.85145827642,0.26861003599,0.332071610334,-1.0,0.0,0.0,0.0,0.0,0.0,0.0,0.0,0.0
1598621624434005055,4240,1598621624433839966,xsense,0.291314036865,-0.631501610552,0.283399653027,0.660323015243,-1.0,0.0,0.0,0.0,0.0,0.0,0.0,0.0,0.0,-6.09922648115e-05,-9.70292115663e-05,-0.00152196046308,-1.0,0.0,0.0,0.0,0.0,0.0,0.0,0.0,0.0,9.84950953651,0.265734683509,0.307843659773,-1.0,0.0,0.0,0.0,0.0,0.0,0.0,0.0,0.0
1598621624434301573,4241,1598621624434162836,xsense,0.291306639112,-0.631504845351,0.283402641917,0.660321902455,-1.0,0.0,0.0,0.0,0.0,0.0,0.0,0.0,0.0,3.83934393503e-05,-0.0015238038654,9.41709392676e-05,-1.0,0.0,0.0,0.0,0.0,0.0,0.0,0.0,0.0,9.84951013369,0.265804963828,0.307763867737,-1.0,0.0,0.0,0.0,0.0,0.0,0.0,0.0,0.0
1598621624434494433,4242,1598621624434397860,xsense,0.291333080513,-0.631480457382,0.283438525142,0.660318158624,-1.0,0.0,0.0,0.0,0.0,0.0,0.0,0.0,0.0,-9.93966136944e-05,0.00142677390678,-0.00161613118258,-1.0,0.0,0.0,0.0,0.0,0.0,0.0,0.0,0.0,9.82520271979,0.264908090805,0.309843131882,-1.0,0.0,0.0,0.0,0.0,0.0,0.0,0.0,0.0
1598621624473945342,4243,1598621624473600200,xsense,0.291322930394,-0.631490616198,0.283445085365,0.660310105528,-1.0,0.0,0.0,0.0,0.0,0.0,0.0,0.0,0.0,0.000137802427467,-0.00295057799295,0.00171030137454,-1.0,0.0,0.0,0.0,0.0,0.0,0.0,0.0,0.0,9.85145682145,0.268970643261,0.331822793171,-1.0,0.0,0.0,0.0,0.0,0.0,0.0,0.0,0.0
1598621624474967033,4244,1598621624474681377,xsense,0.291282178973,-0.631511263337,0.283391471041,0.660331349121,-1.0,0.0,0.0,0.0,0.0,0.0,0.0,0.0,0.0,0.00144355510414,-0.00168741252748,-0.00301509151691,-1.0,0.0,0.0,0.0,0.0,0.0,0.0,0.0,0.0,9.85146275879,0.269037536075,0.331592211796,-1.0,0.0,0.0,0.0,0.0,0.0,0.0,0.0,0.0
1598621624475464752,4245,1598621624475115577,xsense,0.291280751228,-0.631500100905,0.283397325816,0.660340141322,-1.0,0.0,0.0,0.0,0.0,0.0,0.0,0.0,0.0,0.00142774541537,0.0014572357848,-0.00168149567039,-1.0,0.0,0.0,0.0,0.0,0.0,0.0,0.0,0.0,9.87381567852,0.267150045156,0.305353648115,-1.0,0.0,0.0,0.0,0.0,0.0,0.0,0.0,0.0
1598621624478269016,4246,1598621624477871524,xsense,0.291302035275,-0.631491037927,0.28341905781,0.660330092403,-1.0,0.0,0.0,0.0,0.0,0.0,0.0,0.0,0.0,0.00150460848974,-0.00159037035322,-0.00149311171621,-1.0,0.0,0.0,0.0,0.0,0.0,0.0,0.0,0.0,9.8514527648,0.26943487159,0.331566502358,-1.0,0.0,0.0,0.0,0.0,0.0,0.0,0.0,0.0
1598621624522470662,4247,1598621624522226046,xsense,0.291302596084,-0.631484989401,0.283423125642,0.66033388337,-1.0,0.0,0.0,0.0,0.0,0.0,0.0,0.0,0.0,0.00146616703108,-6.65697358153e-05,-0.00158731564548,-1.0,0.0,0.0,0.0,0.0,0.0,0.0,0.0,0.0,9.84950465499,0.266494760868,0.307342390372,-1.0,0.0,0.0,0.0,0.0,0.0,0.0,0.0,0.0
1598621624523731002,4248,1598621624523403170,xsense,0.291277263462,-0.631510980237,0.283378111227,0.66033952154,-1.0,0.0,0.0,0.0,0.0,0.0,0.0,0.0,0.0,-6.67316067766e-06,-0.00476556413108,-0.00276127352547,-1.0,0.0,0.0,0.0,0.0,0.0,0.0,0.0,0.0,9.789500822,0.258174980153,0.461195352436,-1.0,0.0,0.0,0.0,0.0,0.0,0.0,0.0,0.0
1598621624526578407,4249,1598621624526171673,xsense,0.291300932065,-0.631518857835,0.283378974082,0.660321176569,-1.0,0.0,0.0,0.0,0.0,0.0,0.0,0.0,0.0,0.00461338687841,-0.00619778582196,-0.00286325072344,-1.0,0.0,0.0,0.0,0.0,0.0,0.0,0.0,0.0,9.8942290485,0.262748526739,0.254106008643,-1.0,0.0,0.0,0.0,0.0,0.0,0.0,0.0,0.0
1598621624527227354,4250,1598621624526851512,xsense,0.291283353928,-0.631522496017,0.283334996578,0.660344322655,-1.0,0.0,0.0,0.0,0.0,0.0,0.0,0.0,0.0,-0.00482595323209,-0.000480124800203,-0.00589148458595,-1.0,0.0,0.0,0.0,0.0,0.0,0.0,0.0,0.0,9.84561587529,0.261230733302,0.257951459546,-1.0,0.0,0.0,0.0,0.0,0.0,0.0,0.0,0.0
1598621624563616066,4251,1598621624563110828,xsense,0.291282687505,-0.631529035143,0.283330839997,0.660340146317,-1.0,0.0,0.0,0.0,0.0,0.0,0.0,0.0,0.0,1.60114959049e-05,-0.00314469041436,-0.00133353953607,-1.0,0.0,0.0,0.0,0.0,0.0,0.0,0.0,0.0,9.83423294617,0.254989711536,0.407702177315,-1.0,0.0,0.0,0.0,0.0,0.0,0.0,0.0,0.0
1598621624564208875,4252,1598621624563732798,xsense,0.291318769333,-0.631532868361,0.28333429079,0.66031908232,-1.0,0.0,0.0,0.0,0.0,0.0,0.0,0.0,0.0,0.00302528336296,-0.00632526192641,-0.00431997930571,-1.0,0.0,0.0,0.0,0.0,0.0,0.0,0.0,0.0,9.82593161186,0.294375288027,0.328807065198,-1.0,0.0,0.0,0.0,0.0,0.0,0.0,0.0,0.0
1598621624565156537,4253,1598621624564779690,xsense,0.291328346412,-0.631553488901,0.283309404625,0.660305812851,-1.0,0.0,0.0,0.0,0.0,0.0,0.0,0.0,0.0,-0.00151763322968,-0.00794099458521,-0.00402920223598,-1.0,0.0,0.0,0.0,0.0,0.0,0.0,0.0,0.0,9.83282352782,0.201097892427,0.364264919642,-1.0,0.0,0.0,0.0,0.0,0.0,0.0,0.0,0.0
1598621624565707964,4254,1598621624565341807,xsense,0.29135008597,-0.631583047879,0.283246829163,0.660294793866,-1.0,0.0,0.0,0.0,0.0,0.0,0.0,0.0,0.0,0.00136917781232,-0.011315708721,-0.0100597586249,-1.0,0.0,0.0,0.0,0.0,0.0,0.0,0.0,0.0,9.85077203802,0.24496778089,0.306938178054,-1.0,0.0,0.0,0.0,0.0,0.0,0.0,0.0,0.0
1598621624603195285,4255,1598621624602784746,xsense,0.291364108253,-0.631583607549,0.283236603439,0.660292457605,-1.0,0.0,0.0,0.0,0.0,0.0,0.0,0.0,0.0,0.0014207508966,-0.00330822846512,-0.00444307651688,-1.0,0.0,0.0,0.0,0.0,0.0,0.0,0.0,0.0,9.89052897883,0.33823924174,0.241725440343,-1.0,0.0,0.0,0.0,0.0,0.0,0.0,0.0,0.0
1598621624604161253,4256,1598621624603694164,xsense,0.291331717865,-0.631599976866,0.283204880072,0.660304698827,-1.0,0.0,0.0,0.0,0.0,0.0,0.0,0.0,0.0,-0.00154972088866,-0.00165171809794,-0.00136202741342,-1.0,0.0,0.0,0.0,0.0,0.0,0.0,0.0,0.0,9.82719234578,0.272285247873,0.329197828395,-1.0,0.0,0.0,0.0,0.0,0.0,0.0,0.0,0.0
1598621624605240176,4257,1598621624604902946,xsense,0.291327074903,-0.631596289819,0.283204295783,0.660310524651,-1.0,0.0,0.0,0.0,0.0,0.0,0.0,0.0,0.0,-6.13281026968e-05,-9.71228075889e-05,-0.00152194953464,-1.0,0.0,0.0,0.0,0.0,0.0,0.0,0.0,0.0,9.85077623866,0.246111686571,0.305886176036,-1.0,0.0,0.0,0.0,0.0,0.0,0.0,0.0,0.0
1598621624605962478,4258,1598621624605485639,xsense,0.291292115315,-0.631607688841,0.283179040839,0.660325875445,-1.0,0.0,0.0,0.0,0.0,0.0,0.0,0.0,0.0,0.00458151536622,9.2403225904e-05,-0.000197115191385,-1.0,0.0,0.0,0.0,0.0,0.0,0.0,0.0,0.0,9.84829913171,0.294596575577,0.29986804354,-1.0,0.0,0.0,0.0,0.0,0.0,0.0,0.0,0.0
1598621624606363276,4259,1598621624606005579,xsense,0.291275537303,-0.63160305722,0.283180951004,0.660336799268,-1.0,0.0,0.0,0.0,0.0,0.0,0.0,0.0,0.0,-0.00156596489131,0.00149300280525,-2.8546897629e-05,-1.0,0.0,0.0,0.0,0.0,0.0,0.0,0.0,0.0,9.82842354842,0.24833565379,0.332188034252,-1.0,0.0,0.0,0.0,0.0,0.0,0.0,0.0,0.0
1598621624652899151,4260,1598621624652687423,xsense,0.291270432863,-0.631618223909,0.283179012939,0.660325374945,-1.0,0.0,0.0,0.0,0.0,0.0,0.0,0.0,0.0,0.00164355085874,-0.00454061251857,0.000217027270433,-1.0,0.0,0.0,0.0,0.0,0.0,0.0,0.0,0.0,9.8527328931,0.24930907351,0.329941929537,-1.0,0.0,0.0,0.0,0.0,0.0,0.0,0.0,0.0
1598621624653133657,4261,1598621624652891889,xsense,0.291277424766,-0.63162696688,0.283187733214,0.660310187934,-1.0,0.0,0.0,0.0,0.0,0.0,0.0,0.0,0.0,0.00317073124123,-0.00450981925898,0.000151295445558,-1.0,0.0,0.0,0.0,0.0,0.0,0.0,0.0,0.0,9.84955298552,0.270395581359,0.302345797221,-1.0,0.0,0.0,0.0,0.0,0.0,0.0,0.0,0.0
1598621624654369798,4262,1598621624654258259,xsense,0.291303488915,-0.631625902947,0.283226448031,0.660283102319,-1.0,0.0,0.0,0.0,0.0,0.0,0.0,0.0,0.0,0.000177780415739,-0.00447423367171,0.00180476437228,-1.0,0.0,0.0,0.0,0.0,0.0,0.0,0.0,0.0,9.82969914535,0.224029332585,0.334149191536,-1.0,0.0,0.0,0.0,0.0,0.0,0.0,0.0,0.0
1598621624654839642,4263,1598621624654632715,xsense,0.291317211251,-0.631637948748,0.283228021171,0.660264850007,-1.0,0.0,0.0,0.0,0.0,0.0,0.0,0.0,0.0,0.00314808073789,-0.00613084969152,-0.00127644655224,-1.0,0.0,0.0,0.0,0.0,0.0,0.0,0.0,0.0,9.83043990376,0.251305969201,0.354753415562,-1.0,0.0,0.0,0.0,0.0,0.0,0.0,0.0,0.0
1598621624693080814,4264,1598621624692557049,xsense,0.291315992917,-0.631651792328,0.283220562138,0.660255343561,-1.0,0.0,0.0,0.0,0.0,0.0,0.0,0.0,0.0,5.49486086907e-05,-0.00466862987429,-0.00123905367075,-1.0,0.0,0.0,0.0,0.0,0.0,0.0,0.0,0.0,9.80491416791,0.274649318415,0.35331161214,-1.0,0.0,0.0,0.0,0.0,0.0,0.0,0.0,0.0
1598621624693678100,4265,1598621624693333263,xsense,0.291324973597,-0.631665646664,0.283227495365,0.660235152391,-1.0,0.0,0.0,0.0,0.0,0.0,0.0,0.0,0.0,0.00320961331853,-0.00603363789599,0.00024541019801,-1.0,0.0,0.0,0.0,0.0,0.0,0.0,0.0,0.0,9.85157612199,0.273567267582,0.324440998776,-1.0,0.0,0.0,0.0,0.0,0.0,0.0,0.0,0.0
1598621624694274142,4266,1598621624693853719,xsense,0.29131866925,-0.631704736448,0.283219922513,0.66020378247,-1.0,0.0,0.0,0.0,0.0,0.0,0.0,0.0,0.0,0.000333312926455,-0.0105694365868,0.00218214211013,-1.0,0.0,0.0,0.0,0.0,0.0,0.0,0.0,0.0,9.85160634442,0.273453434642,0.323618319424,-1.0,0.0,0.0,0.0,0.0,0.0,0.0,0.0,0.0
1598621624696271422,4267,1598621624696057184,xsense,0.291314018907,-0.631730783443,0.283211118014,0.660184688001,-1.0,0.0,0.0,0.0,0.0,0.0,0.0,0.0,0.0,-0.00133308137479,-0.00764984437868,0.000537581320674,-1.0,0.0,0.0,0.0,0.0,0.0,0.0,0.0,0.0,9.8739757824,0.27119797327,0.296479344511,-1.0,0.0,0.0,0.0,0.0,0.0,0.0,0.0,0.0
1598621624696904881,4268,1598621624696591112,xsense,0.291318337085,-0.631746299685,0.283222532136,0.660163037895,-1.0,0.0,0.0,0.0,0.0,0.0,0.0,0.0,0.0,0.003271288964,-0.00593649088124,0.00176699859519,-1.0,0.0,0.0,0.0,0.0,0.0,0.0,0.0,0.0,9.8477274062,0.267003688303,0.273778226514,-1.0,0.0,0.0,0.0,0.0,0.0,0.0,0.0,0.0
1598621624733978110,4269,1598621624733556665,xsense,0.291308187377,-0.631756456937,0.283229094862,0.660154980977,-1.0,0.0,0.0,0.0,0.0,0.0,0.0,0.0,0.0,0.000139355484514,-0.00295038466501,0.00171057381997,-1.0,0.0,0.0,0.0,0.0,0.0,0.0,0.0,0.0,9.82861852459,0.247864328542,0.326726359859,-1.0,0.0,0.0,0.0,0.0,0.0,0.0,0.0,0.0
1598621624736505483,4270,1598621624736159470,xsense,0.291340087993,-0.631746450788,0.283281535171,0.66012797765,-1.0,0.0,0.0,0.0,0.0,0.0,0.0,0.0,0.0,0.000139359152638,-0.00295038711384,0.00171057248833,-1.0,0.0,0.0,0.0,0.0,0.0,0.0,0.0,0.0,9.84899439838,0.24247275254,0.276054170241,-1.0,0.0,0.0,0.0,0.0,0.0,0.0,0.0,0.0
1598621624737172704,4271,1598621624736823390,xsense,0.291353050484,-0.631740796572,0.283293113834,0.660122698878,-1.0,0.0,0.0,0.0,0.0,0.0,0.0,0.0,0.0,0.00455849232495,-0.0015288693955,-0.00162607690617,-1.0,0.0,0.0,0.0,0.0,0.0,0.0,0.0,0.0,9.80433693367,0.246719614045,0.328320800794,-1.0,0.0,0.0,0.0,0.0,0.0,0.0,0.0,0.0
1598621624737669879,4272,1598621624737369576,xsense,0.291351091857,-0.631749448017,0.283276026855,0.660122616498,-1.0,0.0,0.0,0.0,0.0,0.0,0.0,0.0,0.0,-4.59723492477e-05,-0.00324220294921,-0.00285512366142,-1.0,0.0,0.0,0.0,0.0,0.0,0.0,0.0,0.0,9.85367810916,0.276208347686,0.34498429796,-1.0,0.0,0.0,0.0,0.0,0.0,0.0,0.0,0.0
1598621624783215512,4273,1598621624783064021,xsense,0.291366802324,-0.631766602542,0.283275812004,0.660099356725,-1.0,0.0,0.0,0.0,0.0,0.0,0.0,0.0,0.0,0.00318665989868,-0.00765484802861,-0.00118253140678,-1.0,0.0,0.0,0.0,0.0,0.0,0.0,0.0,0.0,9.83062754133,0.251235120209,0.349566091457,-1.0,0.0,0.0,0.0,0.0,0.0,0.0,0.0,0.0
1598621624783481289,4274,1598621624783330373,xsense,0.29135295068,-0.631796615369,0.283268711967,0.660079791964,-1.0,0.0,0.0,0.0,0.0,0.0,0.0,0.0,0.0,0.00025610351343,-0.00752178355401,0.00199380632573,-1.0,0.0,0.0,0.0,0.0,0.0,0.0,0.0,0.0,9.84976933091,0.27017016099,0.295420056732,-1.0,0.0,0.0,0.0,0.0,0.0,0.0,0.0,0.0
1598621624784489186,4275,1598621624784376831,xsense,0.291353806331,-0.631808820913,0.283252757475,0.660074578162,-1.0,0.0,0.0,0.0,0.0,0.0,0.0,0.0,0.0,-0.00153449897681,-0.00479684372667,-0.00269438065229,-1.0,0.0,0.0,0.0,0.0,0.0,0.0,0.0,0.0,9.80908612986,0.280656207548,0.395587768031,-1.0,0.0,0.0,0.0,0.0,0.0,0.0,0.0,0.0
1598621624784707695,4276,1598621624784586585,xsense,0.291384278281,-0.631848089188,0.28326909408,0.660016526232,-1.0,0.0,0.0,0.0,0.0,0.0,0.0,0.0,0.0,0.00350492675053,-0.0150793882196,0.0023328435603,-1.0,0.0,0.0,0.0,0.0,0.0,0.0,0.0,0.0,9.83218742392,0.305855321443,0.389481165219,-1.0,0.0,0.0,0.0,0.0,0.0,0.0,0.0,0.0
1598621624822557628,4277,1598621624822366013,xsense,0.291381017339,-0.631902197332,0.28328209915,0.659960580673,-1.0,0.0,0.0,0.0,0.0,0.0,0.0,0.0,0.0,0.00216409594019,-0.0148182193219,0.00696499969579,-1.0,0.0,0.0,0.0,0.0,0.0,0.0,0.0,0.0,9.84912843638,0.242472983124,0.271229984076,-1.0,0.0,0.0,0.0,0.0,0.0,0.0,0.0,0.0
1598621624822891676,4278,1598621624822734482,xsense,0.291433579369,-0.63191974644,0.283330622024,0.659899735944,-1.0,0.0,0.0,0.0,0.0,0.0,0.0,0.0,0.0,0.000372780471272,-0.0120933242516,0.00227706336561,-1.0,0.0,0.0,0.0,0.0,0.0,0.0,0.0,0.0,9.87149207021,0.239895298856,0.243642013658,-1.0,0.0,0.0,0.0,0.0,0.0,0.0,0.0,0.0
1598621624823371192,4279,1598621624823187210,xsense,0.291431388164,-0.631920622978,0.283338257671,0.659896585828,-1.0,0.0,0.0,0.0,0.0,0.0,0.0,0.0,0.0,0.00156595850579,-0.00149314973425,2.7722054125e-05,-1.0,0.0,0.0,0.0,0.0,0.0,0.0,0.0,0.0,9.84919712712,0.241910393506,0.269230208006,-1.0,0.0,0.0,0.0,0.0,0.0,0.0,0.0,0.0
1598621624823541840,4280,1598621624823403742,xsense,0.291437871267,-0.631904872794,0.283363975407,0.659897762061,-1.0,0.0,0.0,0.0,0.0,0.0,0.0,0.0,0.0,-3.88148676565e-05,0.00152383469525,-9.44064064023e-05,-1.0,0.0,0.0,0.0,0.0,0.0,0.0,0.0,0.0,9.84994610807,0.2692172194,0.290352385336,-1.0,0.0,0.0,0.0,0.0,0.0,0.0,0.0,0.0
1598621624823731314,4281,1598621624823623862,xsense,0.29143843214,-0.631898830448,0.283368037276,0.659901556144,-1.0,0.0,0.0,0.0,0.0,0.0,0.0,0.0,0.0,0.00146485318728,-6.6667826791e-05,-0.00158856789486,-1.0,0.0,0.0,0.0,0.0,0.0,0.0,0.0,0.0,9.82886565131,0.247232948783,0.319694873022,-1.0,0.0,0.0,0.0,0.0,0.0,0.0,0.0,0.0
1598621624864322120,4282,1598621624863895183,xsense,0.291464265779,-0.631892987929,0.283404055132,0.659880273319,-1.0,0.0,0.0,0.0,0.0,0.0,0.0,0.0,0.0,-0.00144948986139,-0.0030783647264,0.000255508553724,-1.0,0.0,0.0,0.0,0.0,0.0,0.0,0.0,0.0,9.85317051988,0.248277684825,0.317413045898,-1.0,0.0,0.0,0.0,0.0,0.0,0.0,0.0,0.0
1598621624866528283,4283,1598621624866256135,xsense,0.291472486132,-0.63188913942,0.283420989888,0.659873054308,-1.0,0.0,0.0,0.0,0.0,0.0,0.0,0.0,0.0,0.00462026105712,-0.00143175080045,-0.000105686413313,-1.0,0.0,0.0,0.0,0.0,0.0,0.0,0.0,0.0,9.85118986837,0.245169209846,0.293052990168,-1.0,0.0,0.0,0.0,0.0,0.0,0.0,0.0,0.0
1598621624866984903,4284,1598621624866746027,xsense,0.291498102888,-0.631866175913,0.283444738017,0.659873527458,-1.0,0.0,0.0,0.0,0.0,0.0,0.0,0.0,0.0,-0.00169062347458,0.00129836059373,-0.003071514399,-1.0,0.0,0.0,0.0,0.0,0.0,0.0,0.0,0.0,9.85043722152,0.218027692185,0.271921368815,-1.0,0.0,0.0,0.0,0.0,0.0,0.0,0.0,0.0
1598621624867467520,4285,1598621624867183912,xsense,0.291508905922,-0.631844487137,0.28343629301,0.659893150175,-1.0,0.0,0.0,0.0,0.0,0.0,0.0,0.0,0.0,0.00120019775219,0.00268886676294,-0.00634312979076,-1.0,0.0,0.0,0.0,0.0,0.0,0.0,0.0,0.0,9.85116876616,0.245793006281,0.293239824286,-1.0,0.0,0.0,0.0,0.0,0.0,0.0,0.0,0.0
1598621624913592105,4286,1598621624913240009,xsense,0.291531056969,-0.631811255391,0.283453669049,0.65990771922,-1.0,0.0,0.0,0.0,0.0,0.0,0.0,0.0,0.0,-0.000303544159969,0.00427931324257,-0.00484899976113,-1.0,0.0,0.0,0.0,0.0,0.0,0.0,0.0,0.0,9.82882964862,0.248470358641,0.319842438195,-1.0,0.0,0.0,0.0,0.0,0.0,0.0,0.0,0.0
1598621624914200624,4287,1598621624913857961,xsense,0.29153910858,-0.631796484236,0.283448797697,0.659920396532,-1.0,0.0,0.0,0.0,0.0,0.0,0.0,0.0,0.0,0.0013014724254,0.00126245244576,-0.00472677504189,-1.0,0.0,0.0,0.0,0.0,0.0,0.0,0.0,0.0,9.85261099581,0.301423858805,0.336096337179,-1.0,0.0,0.0,0.0,0.0,0.0,0.0,0.0,0.0
1598621624916542976,4288,1598621624916156170,xsense,0.291606893553,-0.631753697422,0.283516318444,0.659902403846,-1.0,0.0,0.0,0.0,0.0,0.0,0.0,0.0,0.0,-0.000163432791577,0.00132901545684,-0.00313824299882,-1.0,0.0,0.0,0.0,0.0,0.0,0.0,0.0,0.0,9.82953666415,0.276633604716,0.341360663703,-1.0,0.0,0.0,0.0,0.0,0.0,0.0,0.0,0.0
1598621624917002448,4289,1598621624916606090,xsense,0.291620614684,-0.631736006418,0.283526106276,0.659909071271,-1.0,0.0,0.0,0.0,0.0,0.0,0.0,0.0,0.0,0.00441801195957,0.00142159602822,-0.0033381257011,-1.0,0.0,0.0,0.0,0.0,0.0,0.0,0.0,0.0,9.85382444515,0.277944006145,0.339364738746,-1.0,0.0,0.0,0.0,0.0,0.0,0.0,0.0,0.0
1598621624953066036,4290,1598621624952630231,xsense,0.291602522883,-0.631737964347,0.283524335998,0.659915952185,-1.0,0.0,0.0,0.0,0.0,0.0,0.0,0.0,0.0,-0.0015271477222,-3.08845346134e-05,6.66172174285e-05,-1.0,0.0,0.0,0.0,0.0,0.0,0.0,0.0,0.0,9.85109315442,0.247698438006,0.294175056685,-1.0,0.0,0.0,0.0,0.0,0.0,0.0,0.0,0.0
1598621624953680528,4291,1598621624953315108,xsense,0.291584416103,-0.631727682369,0.283538043861,0.659927906136,-1.0,0.0,0.0,0.0,0.0,0.0,0.0,0.0,0.0,-1.58120022111e-05,0.00314507330478,0.00133295800939,-1.0,0.0,0.0,0.0,0.0,0.0,0.0,0.0,0.0,9.85307436581,0.250735183209,0.318464371599,-1.0,0.0,0.0,0.0,0.0,0.0,0.0,0.0,0.0
1598621624954929982,4292,1598621624954501598,xsense,0.291556404226,-0.631737156827,0.283490649224,0.65995157371,-1.0,0.0,0.0,0.0,0.0,0.0,0.0,0.0,0.0,0.00286774529587,-0.00023053915553,-0.00469888365231,-1.0,0.0,0.0,0.0,0.0,0.0,0.0,0.0,0.0,9.83199225803,0.228833124453,0.347876650292,-1.0,0.0,0.0,0.0,0.0,0.0,0.0,0.0,0.0
1598621624955379474,4293,1598621624955108700,xsense,0.291551293425,-0.631734032231,0.283480053395,0.659961373984,-1.0,0.0,0.0,0.0,0.0,0.0,0.0,0.0,0.0,-0.00165151308771,-0.000225816083642,-0.00297720072071,-1.0,0.0,0.0,0.0,0.0,0.0,0.0,0.0,0.0,9.85181106473,0.27548090919,0.31556629904,-1.0,0.0,0.0,0.0,0.0,0.0,0.0,0.0,0.0
1598621624982738512,4294,1598621624982142795,xsense,0.291515896803,-0.631751666312,0.283442586589,0.659976222399,-1.0,0.0,0.0,0.0,0.0,0.0,0.0,0.0,0.0,-2.31243169617e-05,-0.0016212627623,-0.00142741966408,-1.0,0.0,0.0,0.0,0.0,0.0,0.0,0.0,0.0,9.82949024635,0.277816723679,0.341736221711,-1.0,0.0,0.0,0.0,0.0,0.0,0.0,0.0,0.0
