%time,field.header.seq,field.header.stamp,field.header.frame_id,field.orientation.x,field.orientation.y,field.orientation.z,field.orientation.w,field.orientation_covariance0,field.orientation_covariance1,field.orientation_covariance2,field.orientation_covariance3,field.orientation_covariance4,field.orientation_covariance5,field.orientation_covariance6,field.orientation_covariance7,field.orientation_covariance8,field.angular_velocity.x,field.angular_velocity.y,field.angular_velocity.z,field.angular_velocity_covariance0,field.angular_velocity_covariance1,field.angular_velocity_covariance2,field.angular_velocity_covariance3,field.angular_velocity_covariance4,field.angular_velocity_covariance5,field.angular_velocity_covariance6,field.angular_velocity_covariance7,field.angular_velocity_covariance8,field.linear_acceleration.x,field.linear_acceleration.y,field.linear_acceleration.z,field.linear_acceleration_covariance0,field.linear_acceleration_covariance1,field.linear_acceleration_covariance2,field.linear_acceleration_covariance3,field.linear_acceleration_covariance4,field.linear_acceleration_covariance5,field.linear_acceleration_covariance6,field.linear_acceleration_covariance7,field.linear_acceleration_covariance8
1598621623164180288,4131,1598621623163744522,xsense,-0.658721662235,0.113174901559,-0.720905887741,-0.183226401972,-1.0,0.0,0.0,0.0,0.0,0.0,0.0,0.0,0.0,0.0014351293786,0.00171350876887,0.00454259396912,-1.0,0.0,0.0,0.0,0.0,0.0,0.0,0.0,0.0,9.76436003134,0.76652299478,1.02355499935,-1.0,0.0,0.0,0.0,0.0,0.0,0.0,0.0,0.0
1598621623164582631,4132,1598621623164359734,xsense,-0.658703859317,0.113168545893,-0.720922166045,-0.183230282561,-1.0,0.0,0.0,0.0,0.0,0.0,0.0,0.0,0.0,0.0015830433101,0.00608830422827,-0.000227492595634,-1.0,0.0,0.0,0.0,0.0,0.0,0.0,0.0,0.0,9.78759303459,0.768105299881,1.04938161224,-1.0,0.0,0.0,0.0,0.0,0.0,0.0,0.0,0.0
1598621623165633330,4133,1598621623165284365,xsense,-0.658687181308,0.113157116749,-0.720936841305,-0.183239556203,-1.0,0.0,0.0,0.0,0.0,0.0,0.0,0.0,0.0,0.00161835331797,0.00602175162212,-0.00175156008422,-1.0,0.0,0.0,0.0,0.0,0.0,0.0,0.0,0.0,9.76200909074,0.770695495839,1.07309326475,-1.0,0.0,0.0,0.0,0.0,0.0,0.0,0.0,0.0
1598621623166387772,4134,1598621623165998031,xsense,-0.658694055747,0.113169545413,-0.720929007142,-0.183237991626,-1.0,0.0,0.0,0.0,0.0,0.0,0.0,0.0,0.0,-4.93881787199e-05,-0.00145824110368,0.00159004889107,-1.0,0.0,0.0,0.0,0.0,0.0,0.0,0.0,0.0,9.73715127896,0.746742281183,1.07425448066,-1.0,0.0,0.0,0.0,0.0,0.0,0.0,0.0,0.0
1598621623203769222,4135,1598621623203492177,xsense,-0.658700580279,0.113159402163,-0.720924665925,-0.183237881733,-1.0,0.0,0.0,0.0,0.0,0.0,0.0,0.0,0.0,0.00308903257199,-8.84306947302e-05,-0.00145122272293,-1.0,0.0,0.0,0.0,0.0,0.0,0.0,0.0,0.0,9.78750594799,0.768244260554,1.0500918905,-1.0,0.0,0.0,0.0,0.0,0.0,0.0,0.0,0.0
1598621623204904448,4136,1598621623204539754,xsense,-0.658702007604,0.113170165366,-0.720921802422,-0.183237369664,-1.0,0.0,0.0,0.0,0.0,0.0,0.0,0.0,0.0,-3.5336031318e-05,6.65924770756e-05,0.00152406677155,-1.0,0.0,0.0,0.0,0.0,0.0,0.0,0.0,0.0,9.76267362437,0.7442872662,1.05102453375,-1.0,0.0,0.0,0.0,0.0,0.0,0.0,0.0,0.0
1598621623205282387,4137,1598621623205029081,xsense,-0.658703086065,0.113158357078,-0.720922430562,-0.183238314074,-1.0,0.0,0.0,0.0,0.0,0.0,0.0,0.0,0.0,0.00310308691717,0.00143635640635,-0.00151722571741,-1.0,0.0,0.0,0.0,0.0,0.0,0.0,0.0,0.0,9.76469314536,0.790811557001,1.02257190573,-1.0,0.0,0.0,0.0,0.0,0.0,0.0,0.0,0.0
1598621623206140025,4138,1598621623205706731,xsense,-0.658695891486,0.11315561816,-0.720926314003,-0.183250589076,-1.0,0.0,0.0,0.0,0.0,0.0,0.0,0.0,0.0,6.34323355081e-05,0.00298300197773,-0.00165612099646,-1.0,0.0,0.0,0.0,0.0,0.0,0.0,0.0,0.0,9.76194922473,0.770922176933,1.07347496433,-1.0,0.0,0.0,0.0,0.0,0.0,0.0,0.0,0.0
1598621623244233649,4139,1598621623243849679,xsense,-0.658690388825,0.113147230726,-0.720933507217,-0.183247248329,-1.0,0.0,0.0,0.0,0.0,0.0,0.0,0.0,0.0,0.00308176224233,0.00302780915293,-5.91421252757e-05,-1.0,0.0,0.0,0.0,0.0,0.0,0.0,0.0,0.0,9.73752661068,0.771371283328,1.07259070012,-1.0,0.0,0.0,0.0,0.0,0.0,0.0,0.0,0.0
1598621623244680440,4140,1598621623244422661,xsense,-0.658693232742,0.113152620712,-0.720931506001,-0.183241570669,-1.0,0.0,0.0,0.0,0.0,0.0,0.0,0.0,0.0,0.00149145542504,5.57358247857e-05,0.00156054352933,-1.0,0.0,0.0,0.0,0.0,0.0,0.0,0.0,0.0,9.76234824702,0.795292528603,1.07177794155,-1.0,0.0,0.0,0.0,0.0,0.0,0.0,0.0,0.0
1598621623247301614,4141,1598621623246867333,xsense,-0.658708097039,0.113156267754,-0.720917960403,-0.183239177939,-1.0,0.0,0.0,0.0,0.0,0.0,0.0,0.0,0.0,0.00149876217493,-0.00306053040698,0.00016860592743,-1.0,0.0,0.0,0.0,0.0,0.0,0.0,0.0,0.0,9.76305318722,0.768775377097,1.04943627502,-1.0,0.0,0.0,0.0,0.0,0.0,0.0,0.0,0.0
1598621623247950795,4142,1598621623247601833,xsense,-0.658696077134,0.113174161019,-0.72092577122,-0.183240605862,-1.0,0.0,0.0,0.0,0.0,0.0,0.0,0.0,0.0,-0.00156950243249,0.00319385590778,0.00287951998583,-1.0,0.0,0.0,0.0,0.0,0.0,0.0,0.0,0.0,9.76419499831,0.766495867504,1.0251484179,-1.0,0.0,0.0,0.0,0.0,0.0,0.0,0.0,0.0
1598621623293461565,4143,1598621623293011316,xsense,-0.658697438501,0.113162065184,-0.720928856409,-0.183231044075,-1.0,0.0,0.0,0.0,0.0,0.0,0.0,0.0,0.0,0.00459461961263,0.00149199464429,4.33840441836e-05,-1.0,0.0,0.0,0.0,0.0,0.0,0.0,0.0,0.0,9.76486388537,0.739919557284,1.00318289402,-1.0,0.0,0.0,0.0,0.0,0.0,0.0,0.0,0.0
1598621623294043480,4144,1598621623293723040,xsense,-0.6586879745,0.113169497541,-0.720935931097,-0.183232639913,-1.0,0.0,0.0,0.0,0.0,0.0,0.0,0.0,0.0,-7.26481511789e-06,0.00311630057695,0.00139186801067,-1.0,0.0,0.0,0.0,0.0,0.0,0.0,0.0,0.0,9.76303217179,0.768453419475,1.04986750031,-1.0,0.0,0.0,0.0,0.0,0.0,0.0,0.0,0.0
1598621623296635772,4145,1598621623296329467,xsense,-0.65868650059,0.113168148819,-0.720937293532,-0.183233410783,-1.0,0.0,0.0,0.0,0.0,0.0,0.0,0.0,0.0,0.00154093266276,0.00151385987501,-2.95786211158e-05,-1.0,0.0,0.0,0.0,0.0,0.0,0.0,0.0,0.0,9.76188067237,0.770526457722,1.07438209068,-1.0,0.0,0.0,0.0,0.0,0.0,0.0,0.0,0.0
1598621623297251162,4146,1598621623296973736,xsense,-0.658690198174,0.113168740054,-0.720931238605,-0.183243576441,-1.0,0.0,0.0,0.0,0.0,0.0,0.0,0.0,0.0,3.54389296246e-05,-6.66986604183e-05,-0.00152405993094,-1.0,0.0,0.0,0.0,0.0,0.0,0.0,0.0,0.0,9.73590077959,0.748773786063,1.0996864216,-1.0,0.0,0.0,0.0,0.0,0.0,0.0,0.0,0.0
1598621623297810533,4147,1598621623297481522,xsense,-0.658702169289,0.113160262814,-0.720921927852,-0.183242410584,-1.0,0.0,0.0,0.0,0.0,0.0,0.0,0.0,0.0,0.00307507115622,-0.00161337481927,-0.00138489398303,-1.0,0.0,0.0,0.0,0.0,0.0,0.0,0.0,0.0,9.78783033112,0.79260640961,1.04911233584,-1.0,0.0,0.0,0.0,0.0,0.0,0.0,0.0,0.0
1598621623333032201,4148,1598621623332934134,xsense,-0.658702175052,0.113160250326,-0.720921938483,-0.183242355753,-1.0,0.0,0.0,0.0,0.0,0.0,0.0,0.0,0.0,0.0,0.0,0.0,-1.0,0.0,0.0,0.0,0.0,0.0,0.0,0.0,0.0,9.73974893047,0.76693788135,1.02450622031,-1.0,0.0,0.0,0.0,0.0,0.0,0.0,0.0,0.0
1598621623333406396,4149,1598621623333304574,xsense,-0.658704671527,0.113143068551,-0.720923427548,-0.18323813293,-1.0,0.0,0.0,0.0,0.0,0.0,0.0,0.0,0.0,0.00463004622312,0.00142531566999,-0.00148063981873,-1.0,0.0,0.0,0.0,0.0,0.0,0.0,0.0,0.0,9.76570121742,0.788870061561,0.999316683289,-1.0,0.0,0.0,0.0,0.0,0.0,0.0,0.0,0.0
1598621623333553275,4150,1598621623333456200,xsense,-0.658684032661,0.113147457055,-0.720937983083,-0.183252346854,-1.0,0.0,0.0,0.0,0.0,0.0,0.0,0.0,0.0,-0.00147065300077,0.00611013123645,-0.000301194753849,-1.0,0.0,0.0,0.0,0.0,0.0,0.0,0.0,0.0,9.78732433542,0.768572655955,1.05154332239,-1.0,0.0,0.0,0.0,0.0,0.0,0.0,0.0,0.0
1598621623334367376,4151,1598621623334266979,xsense,-0.658677394648,0.113144155447,-0.720946772243,-0.183243666905,-1.0,0.0,0.0,0.0,0.0,0.0,0.0,0.0,0.0,0.00304632110964,0.00309454129583,0.00146489677767,-1.0,0.0,0.0,0.0,0.0,0.0,0.0,0.0,0.0,9.73737880694,0.771355114169,1.07394330375,-1.0,0.0,0.0,0.0,0.0,0.0,0.0,0.0,0.0
1598621623372657302,4152,1598621623372526229,xsense,-0.658683927625,0.113134000659,-0.720942439215,-0.183243501174,-1.0,0.0,0.0,0.0,0.0,0.0,0.0,0.0,0.0,0.00308921461707,-8.86054525912e-05,-0.0014508574836,-1.0,0.0,0.0,0.0,0.0,0.0,0.0,0.0,0.0,9.76288110868,0.768904349303,1.05094156179,-1.0,0.0,0.0,0.0,0.0,0.0,0.0,0.0,0.0
1598621623372828422,4153,1598621623372705814,xsense,-0.658701967002,0.113149487096,-0.720927117395,-0.183229374398,-1.0,0.0,0.0,0.0,0.0,0.0,0.0,0.0,0.0,0.00141367958636,-0.00445173550584,0.00328331055297,-1.0,0.0,0.0,0.0,0.0,0.0,0.0,0.0,0.0,9.73739416755,0.771322344938,1.07382756747,-1.0,0.0,0.0,0.0,0.0,0.0,0.0,0.0,0.0
1598621623373447296,4154,1598621623373332239,xsense,-0.65870883835,0.11316191695,-0.720919285719,-0.18322780987,-1.0,0.0,0.0,0.0,0.0,0.0,0.0,0.0,0.0,-4.95476750693e-05,-0.00145799936503,0.00159026714751,-1.0,0.0,0.0,0.0,0.0,0.0,0.0,0.0,0.0,9.78847888203,0.766123258064,1.02728320017,-1.0,0.0,0.0,0.0,0.0,0.0,0.0,0.0,0.0
1598621623373580772,4155,1598621623373504628,xsense,-0.658705946931,0.113165941218,-0.720919786762,-0.18323374766,-1.0,0.0,0.0,0.0,0.0,0.0,0.0,0.0,0.0,1.40863243071e-05,0.00152480299138,-6.62123350442e-05,-1.0,0.0,0.0,0.0,0.0,0.0,0.0,0.0,0.0,9.76478411238,0.739945181224,1.00394020639,-1.0,0.0,0.0,0.0,0.0,0.0,0.0,0.0,0.0
1598621623421812460,4156,1598621623421595705,xsense,-0.658699890457,0.113158113734,-0.720922072616,-0.183251359677,-1.0,0.0,0.0,0.0,0.0,0.0,0.0,0.0,0.0,9.91206659328e-05,0.00291599963998,-0.00318053336251,-1.0,0.0,0.0,0.0,0.0,0.0,0.0,0.0,0.0,9.76134755922,0.746509321245,1.07703882496,-1.0,0.0,0.0,0.0,0.0,0.0,0.0,0.0,0.0
1598621623422163669,4157,1598621623421959437,xsense,-0.658703298251,0.113159004688,-0.720913550076,-0.183272086932,-1.0,0.0,0.0,0.0,0.0,0.0,0.0,0.0,0.0,-0.00145585864609,-0.00012268789526,-0.00308469477872,-1.0,0.0,0.0,0.0,0.0,0.0,0.0,0.0,0.0,9.73850917334,0.76933961032,1.04960090089,-1.0,0.0,0.0,0.0,0.0,0.0,0.0,0.0,0.0
1598621623422399238,4158,1598621623422338261,xsense,-0.658690658448,0.113154597058,-0.720922402772,-0.183285413551,-1.0,0.0,0.0,0.0,0.0,0.0,0.0,0.0,0.0,7.7622948124e-05,0.00450762377684,-0.0017226583523,-1.0,0.0,0.0,0.0,0.0,0.0,0.0,0.0,0.0,9.7614782057,0.822123850511,1.09534612235,-1.0,0.0,0.0,0.0,0.0,0.0,0.0,0.0,0.0
1598621623423027050,4159,1598621623422918793,xsense,-0.658694912444,0.113154627456,-0.720921254271,-0.183274623846,-1.0,0.0,0.0,0.0,0.0,0.0,0.0,0.0,0.0,0.00301817357758,4.50275224094e-05,0.00159729474833,-1.0,0.0,0.0,0.0,0.0,0.0,0.0,0.0,0.0,9.76485963342,0.815741933367,1.02267358918,-1.0,0.0,0.0,0.0,0.0,0.0,0.0,0.0,0.0
1598621623423156425,4160,1598621623423084344,xsense,-0.658702066291,0.113166771756,-0.720915879118,-0.183262557196,-1.0,0.0,0.0,0.0,0.0,0.0,0.0,0.0,0.0,0.0014417467966,-0.00140206713167,0.00315095081009,-1.0,0.0,0.0,0.0,0.0,0.0,0.0,0.0,0.0,9.76285218397,0.769032507402,1.05111647772,-1.0,0.0,0.0,0.0,0.0,0.0,0.0,0.0,0.0
1598621623463840598,4161,1598621623463449016,xsense,-0.658699456549,0.113170509123,-0.720918838085,-0.183257989462,-1.0,0.0,0.0,0.0,0.0,0.0,0.0,0.0,0.0,0.00150540097566,0.00158071394714,0.00149442748601,-1.0,0.0,0.0,0.0,0.0,0.0,0.0,0.0,0.0,9.76241936698,0.744503292439,1.05323091158,-1.0,0.0,0.0,0.0,0.0,0.0,0.0,0.0,0.0
1598621623464479487,4162,1598621623464128110,xsense,-0.658689990333,0.113177941519,-0.72092591322,-0.183259591389,-1.0,0.0,0.0,0.0,0.0,0.0,0.0,0.0,0.0,-7.37328099168e-06,0.00311644583347,0.0013915578096,-1.0,0.0,0.0,0.0,0.0,0.0,0.0,0.0,0.0,9.76512735508,0.764415931648,1.00274962247,-1.0,0.0,0.0,0.0,0.0,0.0,0.0,0.0,0.0
1598621623465395425,4163,1598621623465112037,xsense,-0.658687098708,0.113181965663,-0.720926414037,-0.183265529184,-1.0,0.0,0.0,0.0,0.0,0.0,0.0,0.0,0.0,1.4091220077e-05,0.00152480367258,-6.62464941163e-05,-1.0,0.0,0.0,0.0,0.0,0.0,0.0,0.0,0.0,9.76011290842,0.748577970555,1.10226886022,-1.0,0.0,0.0,0.0,0.0,0.0,0.0,0.0,0.0
1598621623466045030,4164,1598621623465501597,xsense,-0.65869221392,0.113177184102,-0.720921220212,-0.183270528364,-1.0,0.0,0.0,0.0,0.0,0.0,0.0,0.0,0.0,0.00156241976913,-7.77770933992e-05,-0.00148739227784,-1.0,0.0,0.0,0.0,0.0,0.0,0.0,0.0,0.0,9.76168595754,0.770844041309,1.0759223445,-1.0,0.0,0.0,0.0,0.0,0.0,0.0,0.0,0.0
1598621623504151969,4165,1598621623503751092,xsense,-0.65870532147,0.113163622001,-0.720910312636,-0.183274698901,-1.0,0.0,0.0,0.0,0.0,0.0,0.0,0.0,0.0,0.00311076273523,-0.00168035579118,-0.00290852557122,-1.0,0.0,0.0,0.0,0.0,0.0,0.0,0.0,0.0,9.7388811397,0.793613532624,1.04823538207,-1.0,0.0,0.0,0.0,0.0,0.0,0.0,0.0,0.0
1598621623504921691,4166,1598621623504557012,xsense,-0.658714463555,0.113165880427,-0.720899287614,-0.183283813057,-1.0,0.0,0.0,0.0,0.0,0.0,0.0,0.0,0.0,2.14988185439e-05,-0.00159167557193,-0.0014577669319,-1.0,0.0,0.0,0.0,0.0,0.0,0.0,0.0,0.0,9.76395152752,0.767039220129,1.02705917515,-1.0,0.0,0.0,0.0,0.0,0.0,0.0,0.0,0.0
1598621623505800653,4167,1598621623505456365,xsense,-0.658710097466,0.113152405813,-0.720904884147,-0.183285811147,-1.0,0.0,0.0,0.0,0.0,0.0,0.0,0.0,0.0,0.00311734805387,0.00296094940866,-0.00158334749573,-1.0,0.0,0.0,0.0,0.0,0.0,0.0,0.0,0.0,9.76369388714,0.817977036067,1.04717025751,-1.0,0.0,0.0,0.0,0.0,0.0,0.0,0.0,0.0
1598621623506179691,4168,1598621623505833481,xsense,-0.658697174783,0.113148286113,-0.720911275482,-0.183309656498,-1.0,0.0,0.0,0.0,0.0,0.0,0.0,0.0,0.0,-0.00141361390094,0.00445149264325,-0.00328366952564,-1.0,0.0,0.0,0.0,0.0,0.0,0.0,0.0,0.0,9.78598492773,0.771378453726,1.07722873919,-1.0,0.0,0.0,0.0,0.0,0.0,0.0,0.0,0.0
1598621623543998081,4169,1598621623543473159,xsense,-0.658687982702,0.1131554438,-0.720920801077,-0.18330080621,-1.0,0.0,0.0,0.0,0.0,0.0,0.0,0.0,0.0,0.00148367570921,0.0031725230329,0.00295219599809,-1.0,0.0,0.0,0.0,0.0,0.0,0.0,0.0,0.0,9.73831401493,0.769951721626,1.05096189564,-1.0,0.0,0.0,0.0,0.0,0.0,0.0,0.0,0.0
1598621623544630737,4170,1598621623544249690,xsense,-0.65868713415,0.113176382992,-0.720921131937,-0.183289626452,-1.0,0.0,0.0,0.0,0.0,0.0,0.0,0.0,0.0,-0.000106875274336,0.000200691806747,0.00457213979944,-1.0,0.0,0.0,0.0,0.0,0.0,0.0,0.0,0.0,9.76270861095,0.769244446615,1.05229424594,-1.0,0.0,0.0,0.0,0.0,0.0,0.0,0.0,0.0
1598621623547223329,4171,1598621623546771066,xsense,-0.658700861504,0.113185120049,-0.720909184006,-0.183281892367,-1.0,0.0,0.0,0.0,0.0,0.0,0.0,0.0,0.0,0.00146308800001,-0.00299361778031,0.00169337263761,-1.0,0.0,0.0,0.0,0.0,0.0,0.0,0.0,0.0,9.76229748723,0.744627992553,1.05427194433,-1.0,0.0,0.0,0.0,0.0,0.0,0.0,0.0,0.0
1598621623547456745,4172,1598621623547153603,xsense,-0.658699393225,0.113183759795,-0.720910555772,-0.183282613632,-1.0,0.0,0.0,0.0,0.0,0.0,0.0,0.0,0.0,0.00154093953301,0.00151387896887,-2.96227143577e-05,-1.0,0.0,0.0,0.0,0.0,0.0,0.0,0.0,0.0,9.76276157855,0.768880327438,1.05206891803,-1.0,0.0,0.0,0.0,0.0,0.0,0.0,0.0,0.0
1598621623593716248,4173,1598621623593214300,xsense,-0.658688445504,0.113173704903,-0.720922718065,-0.18328032861,-1.0,0.0,0.0,0.0,0.0,0.0,0.0,0.0,0.0,0.00309596720556,0.00455256174324,-0.000125572445187,-1.0,0.0,0.0,0.0,0.0,0.0,0.0,0.0,0.0,9.76455630872,0.740316362842,1.0058803908,-1.0,0.0,0.0,0.0,0.0,0.0,0.0,0.0,0.0
1598621623594288594,4174,1598621623593742777,xsense,-0.658684424786,0.113182802865,-0.720924824603,-0.183280874485,-1.0,0.0,0.0,0.0,0.0,0.0,0.0,0.0,0.0,-2.1560323971e-05,0.00159174625845,0.00145769351935,-1.0,0.0,0.0,0.0,0.0,0.0,0.0,0.0,0.0,9.76225148325,0.744545823523,1.05475584736,-1.0,0.0,0.0,0.0,0.0,0.0,0.0,0.0,0.0
1598621623596463958,4175,1598621623596071044,xsense,-0.658668604483,0.113166566983,-0.72093544098,-0.18330599424,-1.0,0.0,0.0,0.0,0.0,0.0,0.0,0.0,0.0,0.000163372069596,0.00589837397308,-0.00483753282852,-1.0,0.0,0.0,0.0,0.0,0.0,0.0,0.0,0.0,9.76081873002,0.797625841493,1.09946663795,-1.0,0.0,0.0,0.0,0.0,0.0,0.0,0.0,0.0
1598621623597085493,4176,1598621623596709034,xsense,-0.658667135639,0.113165206459,-0.720936813871,-0.183306712592,-1.0,0.0,0.0,0.0,0.0,0.0,0.0,0.0,0.0,0.0015409209011,0.00151390882204,-2.9553289205e-05,-1.0,0.0,0.0,0.0,0.0,0.0,0.0,0.0,0.0,9.78742443263,0.793245195877,1.05241115342,-1.0,0.0,0.0,0.0,0.0,0.0,0.0,0.0,0.0
1598621623597543579,4177,1598621623597231646,xsense,-0.658675417026,0.113172277836,-0.72092983578,-0.183300033871,-1.0,0.0,0.0,0.0,0.0,0.0,0.0,0.0,0.0,0.00147707281071,-0.00146873932185,0.00162721373536,-1.0,0.0,0.0,0.0,0.0,0.0,0.0,0.0,0.0,9.76373889868,0.767073571102,1.0290529632,-1.0,0.0,0.0,0.0,0.0,0.0,0.0,0.0,0.0
1598621623633545279,4178,1598621623633281093,xsense,-0.658679676258,0.113172298151,-0.720928697583,-0.183289192308,-1.0,0.0,0.0,0.0,0.0,0.0,0.0,0.0,0.0,0.0030180083631,4.51581320512e-05,0.00159763842726,-1.0,0.0,0.0,0.0,0.0,0.0,0.0,0.0,0.0,9.76261748649,0.769079898835,1.05325947762,-1.0,0.0,0.0,0.0,0.0,0.0,0.0,0.0,0.0
1598621623634175411,4179,1598621623634014229,xsense,-0.658672756415,0.113169282349,-0.720935028883,-0.183291018925,-1.0,0.0,0.0,0.0,0.0,0.0,0.0,0.0,0.0,0.00155503745353,0.00303868545091,-9.5994670324e-05,-1.0,0.0,0.0,0.0,0.0,0.0,0.0,0.0,0.0,9.76146555719,0.7711718804,1.07768560929,-1.0,0.0,0.0,0.0,0.0,0.0,0.0,0.0,0.0
1598621623634396124,4180,1598621623634166791,xsense,-0.658672761398,0.113169271065,-0.720935038945,-0.183290968409,-1.0,0.0,0.0,0.0,0.0,0.0,0.0,0.0,0.0,0.0,0.0,0.0,-1.0,0.0,0.0,0.0,0.0,0.0,0.0,0.0,0.0,9.78583200005,0.77083610459,1.07900473725,-1.0,0.0,0.0,0.0,0.0,0.0,0.0,0.0,0.0
1598621623634677707,4181,1598621623634450532,xsense,-0.658660451244,0.113187459463,-0.720940381852,-0.183302959065,-1.0,0.0,0.0,0.0,0.0,0.0,0.0,0.0,0.0,-0.00306125785541,0.00313843649916,0.0013175788722,-1.0,0.0,0.0,0.0,0.0,0.0,0.0,0.0,0.0,9.76257917747,0.768963117557,1.05369974041,-1.0,0.0,0.0,0.0,0.0,0.0,0.0,0.0,0.0
1598621623683555760,4182,1598621623683063065,xsense,-0.65867815454,0.113180355316,-0.720928572581,-0.183290177423,-1.0,0.0,0.0,0.0,0.0,0.0,0.0,0.0,0.0,0.00455236355949,-0.0030823815124,0.000243307544177,-1.0,0.0,0.0,0.0,0.0,0.0,0.0,0.0,0.0,9.73865243558,0.793561461665,1.05039737831,-1.0,0.0,0.0,0.0,0.0,0.0,0.0,0.0,0.0
1598621623685962419,4183,1598621623685551639,xsense,-0.658662953118,0.113186417318,-0.720938148921,-0.183303394826,-1.0,0.0,0.0,0.0,0.0,0.0,0.0,0.0,0.0,-0.0014845466372,0.00458532807957,-0.000236081610724,-1.0,0.0,0.0,0.0,0.0,0.0,0.0,0.0,0.0,9.76143462065,0.771052176046,1.07805142048,-1.0,0.0,0.0,0.0,0.0,0.0,0.0,0.0,0.0
1598621623686852698,4184,1598621623686407735,xsense,-0.658669482247,0.113176266114,-0.720933818405,-0.183303233537,-1.0,0.0,0.0,0.0,0.0,0.0,0.0,0.0,0.0,0.0030894756684,-8.88540296786e-05,-0.00145032332651,-1.0,0.0,0.0,0.0,0.0,0.0,0.0,0.0,0.0,9.78807288318,0.766510628298,1.03085650453,-1.0,0.0,0.0,0.0,0.0,0.0,0.0,0.0,0.0
1598621623687495109,4185,1598621623687152578,xsense,-0.658666871462,0.113180003887,-0.720936778133,-0.183298666371,-1.0,0.0,0.0,0.0,0.0,0.0,0.0,0.0,0.0,0.00150518846796,0.00158091496714,0.00149446411179,-1.0,0.0,0.0,0.0,0.0,0.0,0.0,0.0,0.0,9.76139600434,0.771165754651,1.07831979825,-1.0,0.0,0.0,0.0,0.0,0.0,0.0,0.0,0.0
1598621623687919355,4186,1598621623687719181,xsense,-0.658659954069,0.113176977491,-0.720943120616,-0.183300446014,-1.0,0.0,0.0,0.0,0.0,0.0,0.0,0.0,0.0,0.00155506936616,0.00303867704371,-9.60153573525e-05,-1.0,0.0,0.0,0.0,0.0,0.0,0.0,0.0,0.0,9.76297096716,0.793288640489,1.05211688331,-1.0,0.0,0.0,0.0,0.0,0.0,0.0,0.0,0.0
1598621623723232997,4187,1598621623722833767,xsense,-0.65866392606,0.113177295803,-0.720939514306,-0.183300160759,-1.0,0.0,0.0,0.0,0.0,0.0,0.0,0.0,0.0,0.00152685759093,-1.09225013139e-05,3.68930879194e-05,-1.0,0.0,0.0,0.0,0.0,0.0,0.0,0.0,0.0,9.76250396173,0.768990426398,1.0543764629,-1.0,0.0,0.0,0.0,0.0,0.0,0.0,0.0,0.0
1598621623724241122,4188,1598621623723928058,xsense,-0.658662734932,0.113175651368,-0.720943347038,-0.183290381392,-1.0,0.0,0.0,0.0,0.0,0.0,0.0,0.0,0.0,0.00303202756756,0.00157001844421,0.00153135648722,-1.0,0.0,0.0,0.0,0.0,0.0,0.0,0.0,0.0,9.76295282095,0.793255173016,1.05231048214,-1.0,0.0,0.0,0.0,0.0,0.0,0.0,0.0,0.0
1598621623724720479,4189,1598621623724449638,xsense,-0.658659506951,0.113157089333,-0.720947345035,-0.18329771609,-1.0,0.0,0.0,0.0,0.0,0.0,0.0,0.0,0.0,0.00315357439955,0.00289356085938,-0.00310723461935,-1.0,0.0,0.0,0.0,0.0,0.0,0.0,0.0,0.0,9.78914474522,0.764409661851,1.00722346695,-1.0,0.0,0.0,0.0,0.0,0.0,0.0,0.0,0.0
1598621623725265698,4190,1598621623724993339,xsense,-0.658669209396,0.113158779681,-0.72094123859,-0.18328582508,-1.0,0.0,0.0,0.0,0.0,0.0,0.0,0.0,0.0,0.00300379026443,-0.00147950465812,0.0016644011098,-1.0,0.0,0.0,0.0,0.0,0.0,0.0,0.0,0.0,9.76290991709,0.79346748457,1.05254843475,-1.0,0.0,0.0,0.0,0.0,0.0,0.0,0.0,0.0
1598621623763752898,4191,1598621623763524859,xsense,-0.658667174061,0.113158001665,-0.7209376823,-0.183307606809,-1.0,0.0,0.0,0.0,0.0,0.0,0.0,0.0,0.0,-0.0014411106064,0.00140145229129,-0.00315151614778,-1.0,0.0,0.0,0.0,0.0,0.0,0.0,0.0,0.0,9.73852139045,0.793896908327,1.05135842277,-1.0,0.0,0.0,0.0,0.0,0.0,0.0,0.0,0.0
1598621623764938795,4192,1598621623764559243,xsense,-0.658677156434,0.11315940778,-0.720934034321,-0.18328521539,-1.0,0.0,0.0,0.0,0.0,0.0,0.0,0.0,0.0,0.00449483217532,-0.00142324349021,0.00322537156766,-1.0,0.0,0.0,0.0,0.0,0.0,0.0,0.0,0.0,9.78843282673,0.791066489349,1.02941262504,-1.0,0.0,0.0,0.0,0.0,0.0,0.0,0.0,0.0
1598621623765390264,4193,1598621623765036750,xsense,-0.658674545339,0.113163145432,-0.720936994251,-0.18328064862,-1.0,0.0,0.0,0.0,0.0,0.0,0.0,0.0,0.0,0.00150515322222,0.00158103343593,0.00149438967878,-1.0,0.0,0.0,0.0,0.0,0.0,0.0,0.0,0.0,9.76361650497,0.766898494456,1.03034391761,-1.0,0.0,0.0,0.0,0.0,0.0,0.0,0.0,0.0
1598621623765836848,4194,1598621623765513561,xsense,-0.658677385176,0.113168541732,-0.720934991921,-0.183274986956,-1.0,0.0,0.0,0.0,0.0,0.0,0.0,0.0,0.0,0.00149103189089,5.62383048745e-05,0.00156095984681,-1.0,0.0,0.0,0.0,0.0,0.0,0.0,0.0,0.0,9.7624746963,0.768911591394,1.05470487553,-1.0,0.0,0.0,0.0,0.0,0.0,0.0,0.0,0.0
1598621623804001766,4195,1598621623803519622,xsense,-0.658674774033,0.113172279325,-0.720937951787,-0.183270420194,-1.0,0.0,0.0,0.0,0.0,0.0,0.0,0.0,0.0,0.00150516770097,0.00158103422159,0.00149437879477,-1.0,0.0,0.0,0.0,0.0,0.0,0.0,0.0,0.0,9.76202588251,0.744461313207,1.05690133163,-1.0,0.0,0.0,0.0,0.0,0.0,0.0,0.0,0.0
1598621623804515010,4196,1598621623804067611,xsense,-0.658675580001,0.113160747308,-0.720936126313,-0.183281824945,-1.0,0.0,0.0,0.0,0.0,0.0,0.0,0.0,0.0,0.00161269171304,0.00137945968873,-0.00307770840127,-1.0,0.0,0.0,0.0,0.0,0.0,0.0,0.0,0.0,9.7608587121,0.74670264093,1.0813266538,-1.0,0.0,0.0,0.0,0.0,0.0,0.0,0.0,0.0
1598621623806526846,4197,1598621623806161649,xsense,-0.658669517351,0.113152928897,-0.720938400072,-0.183299495081,-1.0,0.0,0.0,0.0,0.0,0.0,0.0,0.0,0.0,9.99572574067e-05,0.00291518459591,-0.00318126539707,-1.0,0.0,0.0,0.0,0.0,0.0,0.0,0.0,0.0,9.76286043452,0.793503438633,1.0529802211,-1.0,0.0,0.0,0.0,0.0,0.0,0.0,0.0,0.0
1598621623807033088,4198,1598621623806686508,xsense,-0.658672931742,0.113153808769,-0.720929882978,-0.183320179963,-1.0,0.0,0.0,0.0,0.0,0.0,0.0,0.0,0.0,-0.00145510597398,-0.000123500990065,-0.00308502998886,-1.0,0.0,0.0,0.0,0.0,0.0,0.0,0.0,0.0,9.76167424277,0.795949726509,1.07741425385,-1.0,0.0,0.0,0.0,0.0,0.0,0.0,0.0,0.0
1598621623853309970,4199,1598621623852770863,xsense,-0.658685184756,0.113145050954,-0.720923031842,-0.183308502221,-1.0,0.0,0.0,0.0,0.0,0.0,0.0,0.0,0.0,0.00456650936259,-0.00155743730452,0.000177516861983,-1.0,0.0,0.0,0.0,0.0,0.0,0.0,0.0,0.0,9.76396463164,0.791812596435,1.02873511049,-1.0,0.0,0.0,0.0,0.0,0.0,0.0,0.0,0.0
1598621623853713494,4200,1598621623853402594,xsense,-0.658686604438,0.113155820611,-0.720920169086,-0.183308011826,-1.0,0.0,0.0,0.0,0.0,0.0,0.0,0.0,0.0,-3.58663769937e-05,6.72255150116e-05,0.0015240265938,-1.0,0.0,0.0,0.0,0.0,0.0,0.0,0.0,0.0,9.76283277893,0.793901290902,1.05293673826,-1.0,0.0,0.0,0.0,0.0,0.0,0.0,0.0,0.0
1598621623855942922,4201,1598621623855597989,xsense,-0.658677409816,0.113162977492,-0.720929696009,-0.183299164578,-1.0,0.0,0.0,0.0,0.0,0.0,0.0,0.0,0.0,0.00148331482186,0.00317314923504,0.00295175965137,-1.0,0.0,0.0,0.0,0.0,0.0,0.0,0.0,0.0,9.76168688369,0.795839092064,1.07738145263,-1.0,0.0,0.0,0.0,0.0,0.0,0.0,0.0,0.0
1598621623856587343,4202,1598621623856172432,xsense,-0.658668216864,0.113170127726,-0.720939229678,-0.183290287235,-1.0,0.0,0.0,0.0,0.0,0.0,0.0,0.0,0.0,0.00148331943006,0.00317315174351,0.0029517605129,-1.0,0.0,0.0,0.0,0.0,0.0,0.0,0.0,0.0,9.76237198601,0.76910109108,1.05551709424,-1.0,0.0,0.0,0.0,0.0,0.0,0.0,0.0,0.0
1598621623857162303,4203,1598621623856736828,xsense,-0.658666743073,0.113168778506,-0.720940591994,-0.183291058036,-1.0,0.0,0.0,0.0,0.0,0.0,0.0,0.0,0.0,0.00154100336347,0.00151385830642,-2.96382659972e-05,-1.0,0.0,0.0,0.0,0.0,0.0,0.0,0.0,0.0,9.76305442218,0.742508232034,1.03357235554,-1.0,0.0,0.0,0.0,0.0,0.0,0.0,0.0,0.0
1598621623892744072,4204,1598621623892401382,xsense,-0.658666745623,0.113168771181,-0.720940599298,-0.183291024668,-1.0,0.0,0.0,0.0,0.0,0.0,0.0,0.0,0.0,0.0,0.0,0.0,-1.0,0.0,0.0,0.0,0.0,0.0,0.0,0.0,0.0,9.76120234845,0.771133629175,1.08009434651,-1.0,0.0,0.0,0.0,0.0,0.0,0.0,0.0,0.0
1598621623893956003,4205,1598621623893529742,xsense,-0.658674745484,0.113176129718,-0.720931162524,-0.183294850517,-1.0,0.0,0.0,0.0,0.0,0.0,0.0,0.0,0.0,-1.41403184635e-05,-0.00152479373222,6.66620631781e-05,-1.0,0.0,0.0,0.0,0.0,0.0,0.0,0.0,0.0,9.7619067732,0.744663941925,1.05785829203,-1.0,0.0,0.0,0.0,0.0,0.0,0.0,0.0,0.0
1598621623894448388,4206,1598621623894086792,xsense,-0.658664376538,0.113161547734,-0.720936815321,-0.183318879301,-1.0,0.0,0.0,0.0,0.0,0.0,0.0,0.0,0.0,0.000150155853955,0.00437259706105,-0.00477205860143,-1.0,0.0,0.0,0.0,0.0,0.0,0.0,0.0,0.0,9.73909092761,0.767410367857,1.03039080086,-1.0,0.0,0.0,0.0,0.0,0.0,0.0,0.0,0.0
1598621623897161282,4207,1598621623896790315,xsense,-0.65866579274,0.113172325506,-0.720933945272,-0.183318424516,-1.0,0.0,0.0,0.0,0.0,0.0,0.0,0.0,0.0,-3.5946557184e-05,6.72616655886e-05,0.00152402330135,-1.0,0.0,0.0,0.0,0.0,0.0,0.0,0.0,0.0,9.78667246708,0.769021697038,1.05726654879,-1.0,0.0,0.0,0.0,0.0,0.0,0.0,0.0,0.0
1598621623933159017,4208,1598621623932654612,xsense,-0.658661430373,0.113158841599,-0.72093954889,-0.183320384991,-1.0,0.0,0.0,0.0,0.0,0.0,0.0,0.0,0.0,0.00311791111018,0.00296050673452,-0.00158325546998,-1.0,0.0,0.0,0.0,0.0,0.0,0.0,0.0,0.0,9.7604260844,0.798006063921,1.10267179436,-1.0,0.0,0.0,0.0,0.0,0.0,0.0,0.0,0.0
1598621623933904582,4209,1598621623933403460,xsense,-0.658665682158,0.113158875808,-0.720938402905,-0.18330959383,-1.0,0.0,0.0,0.0,0.0,0.0,0.0,0.0,0.0,0.00301775837804,4.54901887376e-05,0.0015981600489,-1.0,0.0,0.0,0.0,0.0,0.0,0.0,0.0,0.0,9.76340713109,0.767270328832,1.0320496979,-1.0,0.0,0.0,0.0,0.0,0.0,0.0,0.0,0.0
1598621623935794476,4210,1598621623935635300,xsense,-0.658668516411,0.113164274751,-0.720936404023,-0.18330393821,-1.0,0.0,0.0,0.0,0.0,0.0,0.0,0.0,0.0,0.00149089574206,5.64000045199e-05,0.00156109061223,-1.0,0.0,0.0,0.0,0.0,0.0,0.0,0.0,0.0,9.76272066333,0.793607258297,1.05419716986,-1.0,0.0,0.0,0.0,0.0,0.0,0.0,0.0,0.0
1598621623936731091,4211,1598621623936285304,xsense,-0.658665904601,0.113168012549,-0.720939364496,-0.183299371991,-1.0,0.0,0.0,0.0,0.0,0.0,0.0,0.0,0.0,0.00150502940187,0.001581193229,0.00149437073381,-1.0,0.0,0.0,0.0,0.0,0.0,0.0,0.0,0.0,9.76272415459,0.793473901769,1.0542652198,-1.0,0.0,0.0,0.0,0.0,0.0,0.0,0.0,0.0
1598621623963363605,4212,1598621623962896229,xsense,-0.658669876329,0.113168325505,-0.720935766477,-0.183299058191,-1.0,0.0,0.0,0.0,0.0,0.0,0.0,0.0,0.0,0.00152686524355,-1.09309093375e-05,3.70826772019e-05,-1.0,0.0,0.0,0.0,0.0,0.0,0.0,0.0,0.0,9.78620061872,0.744432752839,1.05978064875,-1.0,0.0,0.0,0.0,0.0,0.0,0.0,0.0,0.0
1598621623965514913,4213,1598621623965165165,xsense,-0.658673848202,0.11316864443,-0.720932160268,-0.183298772238,-1.0,0.0,0.0,0.0,0.0,0.0,0.0,0.0,0.0,0.0015268657567,-1.09306297271e-05,3.70827731671e-05,-1.0,0.0,0.0,0.0,0.0,0.0,0.0,0.0,0.0,9.76227029682,0.769111121049,1.05644987549,-1.0,0.0,0.0,0.0,0.0,0.0,0.0,0.0,0.0
1598621623966079408,4214,1598621623965715293,xsense,-0.658674929707,0.113156829643,-0.720932795618,-0.18329968108,-1.0,0.0,0.0,0.0,0.0,0.0,0.0,0.0,0.0,0.00310385837153,0.00143557524957,-0.00151660734638,-1.0,0.0,0.0,0.0,0.0,0.0,0.0,0.0,0.0,9.76180518122,0.744891359734,1.05863538075,-1.0,0.0,0.0,0.0,0.0,0.0,0.0,0.0,0.0
1598621624004029200,4215,1598621624003613778,xsense,-0.658682070752,0.1131689912,-0.720927417411,-0.183287664415,-1.0,0.0,0.0,0.0,0.0,0.0,0.0,0.0,0.0,0.00144075080036,-0.0014009496974,0.00315190698224,-1.0,0.0,0.0,0.0,0.0,0.0,0.0,0.0,0.0,9.73833251783,0.793817668398,1.05316617296,-1.0,0.0,0.0,0.0,0.0,0.0,0.0,0.0,0.0
1598621624004361613,4216,1598621624004185060,xsense,-0.658699488504,0.113162181537,-0.720913147129,-0.183285402612,-1.0,0.0,0.0,0.0,0.0,0.0,0.0,0.0,0.0,0.0030614001551,-0.00313885140015,-0.00131627086767,-1.0,0.0,0.0,0.0,0.0,0.0,0.0,0.0,0.0,9.76229422568,0.769086166254,1.05624691033,-1.0,0.0,0.0,0.0,0.0,0.0,0.0,0.0,0.0
1598621624006906220,4217,1598621624006537965,xsense,-0.65868428841,0.113168238321,-0.720922722792,-0.183298624653,-1.0,0.0,0.0,0.0,0.0,0.0,0.0,0.0,0.0,-0.00148442934657,0.00458529567684,-0.000237498737883,-1.0,0.0,0.0,0.0,0.0,0.0,0.0,0.0,0.0,9.78781305828,0.766666761107,1.03320475779,-1.0,0.0,0.0,0.0,0.0,0.0,0.0,0.0,0.0
1598621624007328506,4218,1598621624007012529,xsense,-0.658689398028,0.113163463365,-0.720917527593,-0.183303643973,-1.0,0.0,0.0,0.0,0.0,0.0,0.0,0.0,0.0,0.00156285899378,-7.83310248194e-05,-0.00148692133778,-1.0,0.0,0.0,0.0,0.0,0.0,0.0,0.0,0.0,9.73901763321,0.767449722983,1.03105402515,-1.0,0.0,0.0,0.0,0.0,0.0,0.0,0.0,0.0
1598621624052849344,4219,1598621624052338006,xsense,-0.658695925765,0.113153323546,-0.720913184814,-0.183303526185,-1.0,0.0,0.0,0.0,0.0,0.0,0.0,0.0,0.0,0.00308972918791,-8.92469841461e-05,-0.00144982657266,-1.0,0.0,0.0,0.0,0.0,0.0,0.0,0.0,0.0,9.73945880726,0.791932995164,1.02889237095,-1.0,0.0,0.0,0.0,0.0,0.0,0.0,0.0,0.0
1598621624053169488,4220,1598621624052918960,xsense,-0.658690145606,0.113145211612,-0.720917925115,-0.183310660955,-1.0,0.0,0.0,0.0,0.0,0.0,0.0,0.0,0.0,0.00159111160662,0.00297123540691,-0.0016205933951,-1.0,0.0,0.0,0.0,0.0,0.0,0.0,0.0,0.0,9.7608139596,0.822540680587,1.10093831742,-1.0,0.0,0.0,0.0,0.0,0.0,0.0,0.0,0.0
1598621624055566829,4221,1598621624055188726,xsense,-0.658697006589,0.113157658007,-0.720910086998,-0.183309149826,-1.0,0.0,0.0,0.0,0.0,0.0,0.0,0.0,0.0,-5.01288395234e-05,-0.00145733955515,0.00159086182893,-1.0,0.0,0.0,0.0,0.0,0.0,0.0,0.0,0.0,9.7870386094,0.793574976697,1.05574533753,-1.0,0.0,0.0,0.0,0.0,0.0,0.0,0.0,0.0
1598621624055737487,4222,1598621624055552514,xsense,-0.658690139483,0.113177505551,-0.720910469336,-0.183320068697,-1.0,0.0,0.0,0.0,0.0,0.0,0.0,0.0,0.0,-0.00307561559768,0.00161404510025,0.00138295418756,-1.0,0.0,0.0,0.0,0.0,0.0,0.0,0.0,0.0,9.74058567505,0.789799870285,1.00481030232,-1.0,0.0,0.0,0.0,0.0,0.0,0.0,0.0,0.0
1598621624056381404,4223,1598621624056099091,xsense,-0.658689277699,0.113198457908,-0.720910796584,-0.183308941245,-1.0,0.0,0.0,0.0,0.0,0.0,0.0,0.0,0.0,-0.000108040580761,0.000202278180595,0.0045720442332,-1.0,0.0,0.0,0.0,0.0,0.0,0.0,0.0,0.0,9.78730984482,0.742317345164,1.03584661634,-1.0,0.0,0.0,0.0,0.0,0.0,0.0,0.0,0.0
1598621624093089496,4224,1598621624092686616,xsense,-0.658682080547,0.113195718569,-0.720914672569,-0.183321250647,-1.0,0.0,0.0,0.0,0.0,0.0,0.0,0.0,0.0,6.43577811963e-05,0.0029821517134,-0.00165766198813,-1.0,0.0,0.0,0.0,0.0,0.0,0.0,0.0,0.0,9.7633742134,0.76684052604,1.03268036126,-1.0,0.0,0.0,0.0,0.0,0.0,0.0,0.0,0.0
1598621624093494920,4225,1598621624093266127,xsense,-0.658683442717,0.113183626324,-0.720917759163,-0.18331168415,-1.0,0.0,0.0,0.0,0.0,0.0,0.0,0.0,0.0,0.00459476664065,0.00149197713825,4.46030769019e-05,-1.0,0.0,0.0,0.0,0.0,0.0,0.0,0.0,0.0,9.76174046361,0.744782533627,1.05930850048,-1.0,0.0,0.0,0.0,0.0,0.0,0.0,0.0,0.0
1598621624094526639,4226,1598621624094218221,xsense,-0.658688554463,0.113178852309,-0.720912560921,-0.183316707137,-1.0,0.0,0.0,0.0,0.0,0.0,0.0,0.0,0.0,0.00156291728775,-7.83976675302e-05,-0.00148685827165,-1.0,0.0,0.0,0.0,0.0,0.0,0.0,0.0,0.0,9.76102799152,0.771357858461,1.08150902172,-1.0,0.0,0.0,0.0,0.0,0.0,0.0,0.0,0.0
1598621624095011975,4227,1598621624094737856,xsense,-0.658694803437,0.113168996847,-0.720905757198,-0.183327093785,-1.0,0.0,0.0,0.0,0.0,0.0,0.0,0.0,0.0,0.00159896740807,-0.00014586946319,-0.00301086974284,-1.0,0.0,0.0,0.0,0.0,0.0,0.0,0.0,0.0,9.76216392666,0.769437950691,1.05719455225,-1.0,0.0,0.0,0.0,0.0,0.0,0.0,0.0,0.0
1598621624133267461,4228,1598621624132939722,xsense,-0.658700192795,0.113163939126,-0.72090302076,-0.183321612347,-1.0,0.0,0.0,0.0,0.0,0.0,0.0,0.0,0.0,0.00305374139383,-2.18015400658e-05,7.43055916728e-05,-1.0,0.0,0.0,0.0,0.0,0.0,0.0,0.0,0.0,9.76330559686,0.767448814541,1.03287718631,-1.0,0.0,0.0,0.0,0.0,0.0,0.0,0.0,0.0
1598621624134566882,4229,1598621624134202796,xsense,-0.658690996263,0.113171095283,-0.720912549271,-0.183312768072,-1.0,0.0,0.0,0.0,0.0,0.0,0.0,0.0,0.0,0.0014830330079,0.00317368780898,0.00295136149247,-1.0,0.0,0.0,0.0,0.0,0.0,0.0,0.0,0.0,9.76375285875,0.791640574756,1.03087524341,-1.0,0.0,0.0,0.0,0.0,0.0,0.0,0.0,0.0
1598621624135327936,4230,1598621624134900560,xsense,-0.658678354091,0.113166686058,-0.720921393624,-0.183326133526,-1.0,0.0,0.0,0.0,0.0,0.0,0.0,0.0,0.0,7.85339772345e-05,0.00450684057045,-0.00172475935763,-1.0,0.0,0.0,0.0,0.0,0.0,0.0,0.0,0.0,9.76301692742,0.818062587782,1.05339659619,-1.0,0.0,0.0,0.0,0.0,0.0,0.0,0.0,0.0
1598621624138630168,4231,1598621624138329191,xsense,-0.658679769056,0.11317746415,-0.720918524267,-0.183325679636,-1.0,0.0,0.0,0.0,0.0,0.0,0.0,0.0,0.0,-3.61064038074e-05,6.75196802364e-05,0.00152400830633,-1.0,0.0,0.0,0.0,0.0,0.0,0.0,0.0,0.0,9.73770505236,0.769789415509,1.05670760874,-1.0,0.0,0.0,0.0,0.0,0.0,0.0,0.0,0.0
1598621624174225423,4232,1598621624173797572,xsense,-0.658672571449,0.113174724732,-0.720922399221,-0.183337992799,-1.0,0.0,0.0,0.0,0.0,0.0,0.0,0.0,0.0,6.44173045964e-05,0.00298205502955,-0.00165784130152,-1.0,0.0,0.0,0.0,0.0,0.0,0.0,0.0,0.0,9.73814062635,0.794112094697,1.05471741677,-1.0,0.0,0.0,0.0,0.0,0.0,0.0,0.0,0.0
1598621624176485087,4233,1598621624176079252,xsense,-0.658684545257,0.113166254853,-0.720913088015,-0.183336816079,-1.0,0.0,0.0,0.0,0.0,0.0,0.0,0.0,0.0,0.00307572651157,-0.00161412313081,-0.00138262074437,-1.0,0.0,0.0,0.0,0.0,0.0,0.0,0.0,0.0,9.76205205558,0.76961228581,1.05810028019,-1.0,0.0,0.0,0.0,0.0,0.0,0.0,0.0,0.0
1598621624177055638,4234,1598621624176708949,xsense,-0.658688517124,0.113166570702,-0.720909486767,-0.18333651184,-1.0,0.0,0.0,0.0,0.0,0.0,0.0,0.0,0.0,0.00152687133628,-1.08964252566e-05,3.72230766863e-05,-1.0,0.0,0.0,0.0,0.0,0.0,0.0,0.0,0.0,9.76436407149,0.765384797797,1.00942120268,-1.0,0.0,0.0,0.0,0.0,0.0,0.0,0.0,0.0
1598621624177825016,4235,1598621624177381143,xsense,-0.658681597991,0.113163551855,-0.720915817497,-0.18333834046,-1.0,0.0,0.0,0.0,0.0,0.0,0.0,0.0,0.0,0.00155513889889,0.00303867642915,-9.66806003039e-05,-1.0,0.0,0.0,0.0,0.0,0.0,0.0,0.0,0.0,9.76319389502,0.767562382949,1.03384820249,-1.0,0.0,0.0,0.0,0.0,0.0,0.0,0.0,0.0
1598621624178258519,4236,1598621624177970377,xsense,-0.658673541854,0.113165615973,-0.720923751203,-0.183334812775,-1.0,0.0,0.0,0.0,0.0,0.0,0.0,0.0,0.0,0.00151900001464,0.00310624408718,0.00142732519425,-1.0,0.0,0.0,0.0,0.0,0.0,0.0,0.0,0.0,9.76432263147,0.765353811664,1.0098454701,-1.0,0.0,0.0,0.0,0.0,0.0,0.0,0.0,0.0
1598621624223930111,4237,1598621624223564299,xsense,-0.658673485916,0.113158895324,-0.720925975689,-0.18333041465,-1.0,0.0,0.0,0.0,0.0,0.0,0.0,0.0,0.0,0.00306789137515,0.00150297609247,7.56643132144e-06,-1.0,0.0,0.0,0.0,0.0,0.0,0.0,0.0,0.0,9.7376104705,0.769975568279,1.05744330819,-1.0,0.0,0.0,0.0,0.0,0.0,0.0,0.0,0.0
1598621624224371731,4238,1598621624224089877,xsense,-0.658666570564,0.11315587161,-0.72093230891,-0.183332221698,-1.0,0.0,0.0,0.0,0.0,0.0,0.0,0.0,0.0,0.00155517013799,0.00303866698857,-9.67131082488e-05,-1.0,0.0,0.0,0.0,0.0,0.0,0.0,0.0,0.0,9.7619685756,0.76965589143,1.05883849047,-1.0,0.0,0.0,0.0,0.0,0.0,0.0,0.0,0.0
1598621624225228921,4239,1598621624225013413,xsense,-0.658675987601,0.113157860806,-0.72092373474,-0.183330877333,-1.0,0.0,0.0,0.0,0.0,0.0,0.0,0.0,0.0,0.00151272297225,-0.00153568794699,0.000104314943834,-1.0,0.0,0.0,0.0,0.0,0.0,0.0,0.0,0.0,9.73757819329,0.770020208476,1.05770799842,-1.0,0.0,0.0,0.0,0.0,0.0,0.0,0.0,0.0
1598621624225817594,4240,1598621624225496730,xsense,-0.658680240874,0.113157892464,-0.720922593419,-0.18332006424,-1.0,0.0,0.0,0.0,0.0,0.0,0.0,0.0,0.0,0.00301755981911,4.58193788579e-05,0.00159859003796,-1.0,0.0,0.0,0.0,0.0,0.0,0.0,0.0,0.0,9.73874910705,0.767799687504,1.03332734835,-1.0,0.0,0.0,0.0,0.0,0.0,0.0,0.0,0.0
1598621624264077593,4241,1598621624263664681,xsense,-0.658673043258,0.1131551566,-0.720926462546,-0.183332398175,-1.0,0.0,0.0,0.0,0.0,0.0,0.0,0.0,0.0,6.45111214146e-05,0.00298191892842,-0.00165808845538,-1.0,0.0,0.0,0.0,0.0,0.0,0.0,0.0,0.0,9.76195882963,0.769631850007,1.05894581431,-1.0,0.0,0.0,0.0,0.0,0.0,0.0,0.0,0.0
1598621624265102048,4242,1598621624264807376,xsense,-0.65867815733,0.113150384032,-0.720921260617,-0.183337425641,-1.0,0.0,0.0,0.0,0.0,0.0,0.0,0.0,0.0,0.00156308427323,-7.85497415093e-05,-0.00148668244688,-1.0,0.0,0.0,0.0,0.0,0.0,0.0,0.0,0.0,9.76469788302,0.789785365126,1.00835727997,-1.0,0.0,0.0,0.0,0.0,0.0,0.0,0.0,0.0
1598621624267980950,4243,1598621624267528805,xsense,-0.65868326811,0.113145616248,-0.720916055292,-0.183342474779,-1.0,0.0,0.0,0.0,0.0,0.0,0.0,0.0,0.0,0.00156308530304,-7.85491794415e-05,-0.00148668225555,-1.0,0.0,0.0,0.0,0.0,0.0,0.0,0.0,0.0,9.76237243872,0.794271262173,1.05691836672,-1.0,0.0,0.0,0.0,0.0,0.0,0.0,0.0,0.0
1598621624268526498,4244,1598621624268181773,xsense,-0.65869154993,0.113152689045,-0.720909081828,-0.183335775968,-1.0,0.0,0.0,0.0,0.0,0.0,0.0,0.0,0.0,0.00147653586326,-0.00146798932202,0.00162838361707,-1.0,0.0,0.0,0.0,0.0,0.0,0.0,0.0,0.0,9.73638997129,0.772475503409,1.08207249366,-1.0,0.0,0.0,0.0,0.0,0.0,0.0,0.0,0.0
1598621624303613806,4245,1598621624303105761,xsense,-0.658694382005,0.113158096497,-0.720907075258,-0.183330153427,-1.0,0.0,0.0,0.0,0.0,0.0,0.0,0.0,0.0,0.00149067685317,5.67936973732e-05,0.00156130448796,-1.0,0.0,0.0,0.0,0.0,0.0,0.0,0.0,0.0,9.76426292727,0.765498385056,1.01031306281,-1.0,0.0,0.0,0.0,0.0,0.0,0.0,0.0,0.0
1598621624304227823,4246,1598621624303674396,xsense,-0.658687467945,0.113155072689,-0.720913406887,-0.183331963572,-1.0,0.0,0.0,0.0,0.0,0.0,0.0,0.0,0.0,0.00155518026206,0.00303866316481,-9.68749378378e-05,-1.0,0.0,0.0,0.0,0.0,0.0,0.0,0.0,0.0,9.73755604416,0.770117852449,1.05784081343,-1.0,0.0,0.0,0.0,0.0,0.0,0.0,0.0,0.0
1598621624306303635,4247,1598621624305898231,xsense,-0.658688882131,0.113165851025,-0.720910538154,-0.183331510378,-1.0,0.0,0.0,0.0,0.0,0.0,0.0,0.0,0.0,-3.62212833369e-05,6.77069043025e-05,0.00152399727474,-1.0,0.0,0.0,0.0,0.0,0.0,0.0,0.0,0.0,9.76218010525,0.718913104992,1.03917773631,-1.0,0.0,0.0,0.0,0.0,0.0,0.0,0.0,0.0
1598621624306944395,4248,1598621624306533559,xsense,-0.658690249061,0.113153754162,-0.72091362725,-0.183321918376,-1.0,0.0,0.0,0.0,0.0,0.0,0.0,0.0,0.0,0.00459479390665,0.00149204922142,4.48891056189e-05,-1.0,0.0,0.0,0.0,0.0,0.0,0.0,0.0,0.0,9.78862317653,0.764978032446,1.01185028049,-1.0,0.0,0.0,0.0,0.0,0.0,0.0,0.0,0.0
1598621624353332391,4249,1598621624352776513,xsense,-0.658690776306,0.113142511778,-0.720909328585,-0.18334386599,-1.0,0.0,0.0,0.0,0.0,0.0,0.0,0.0,0.0,0.000122865652561,0.00132155560422,-0.00463912273763,-1.0,0.0,0.0,0.0,0.0,0.0,0.0,0.0,0.0,9.73751032119,0.770252774144,1.05816342165,-1.0,0.0,0.0,0.0,0.0,0.0,0.0,0.0,0.0
1598621624353677521,4250,1598621624353460284,xsense,-0.658690448176,0.113136068234,-0.720909093068,-0.183349947039,-1.0,0.0,0.0,0.0,0.0,0.0,0.0,0.0,0.0,0.00157725472517,0.00144616558571,-0.00155378005912,-1.0,0.0,0.0,0.0,0.0,0.0,0.0,0.0,0.0,9.76301274079,0.768050872434,1.03519526017,-1.0,0.0,0.0,0.0,0.0,0.0,0.0,0.0,0.0
1598621624356290746,4251,1598621624355802671,xsense,-0.658701004192,0.113132970364,-0.720898919151,-0.18335393767,-1.0,0.0,0.0,0.0,0.0,0.0,0.0,0.0,0.0,0.00154901490268,-0.00160339522087,-0.00141948117064,-1.0,0.0,0.0,0.0,0.0,0.0,0.0,0.0,0.0,9.78667705083,0.794346052838,1.05851351196,-1.0,0.0,0.0,0.0,0.0,0.0,0.0,0.0,0.0
1598621624356676394,4252,1598621624356301799,xsense,-0.658707539437,0.113122826287,-0.720894576512,-0.183353792483,-1.0,0.0,0.0,0.0,0.0,0.0,0.0,0.0,0.0,0.00309000385401,-8.94646070166e-05,-0.0014492907475,-1.0,0.0,0.0,0.0,0.0,0.0,0.0,0.0,0.0,9.73675143443,0.79737011984,1.0803150701,-1.0,0.0,0.0,0.0,0.0,0.0,0.0,0.0,0.0
1598621624357324468,4253,1598621624356950983,xsense,-0.658703786323,0.11313165195,-0.720899138662,-0.183343892963,-1.0,0.0,0.0,0.0,0.0,0.0,0.0,0.0,0.0,0.00146848502552,0.0016495156847,0.00301815160134,-1.0,0.0,0.0,0.0,0.0,0.0,0.0,0.0,0.0,9.78783114299,0.792291781613,1.03418034954,-1.0,0.0,0.0,0.0,0.0,0.0,0.0,0.0,0.0
1598621624393284986,4254,1598621624392804715,xsense,-0.658691149871,0.113127240256,-0.720907975724,-0.183357266372,-1.0,0.0,0.0,0.0,0.0,0.0,0.0,0.0,0.0,7.86252594316e-05,0.00450653836067,-0.00172557909807,-1.0,0.0,0.0,0.0,0.0,0.0,0.0,0.0,0.0,9.76342207732,0.792583409872,1.03328086091,-1.0,0.0,0.0,0.0,0.0,0.0,0.0,0.0,0.0
1598621624394296658,4255,1598621624393940028,xsense,-0.658685116918,0.113146241722,-0.720915737559,-0.183336695933,-1.0,0.0,0.0,0.0,0.0,0.0,0.0,0.0,0.0,0.00139582412682,0.00178513189409,0.00606616735419,-1.0,0.0,0.0,0.0,0.0,0.0,0.0,0.0,0.0,9.76179502203,0.770230866086,1.06001980884,-1.0,0.0,0.0,0.0,0.0,0.0,0.0,0.0,0.0
1598621624394720940,4256,1598621624394470146,xsense,-0.658680813825,0.113155628759,-0.720915374753,-0.183347788706,-1.0,0.0,0.0,0.0,0.0,0.0,0.0,0.0,0.0,-0.00151271876164,0.00153567286544,-0.00010461819965,-1.0,0.0,0.0,0.0,0.0,0.0,0.0,0.0,0.0,9.76134787014,0.745624057996,1.06232995053,-1.0,0.0,0.0,0.0,0.0,0.0,0.0,0.0,0.0
1598621624395149754,4257,1598621624394852539,xsense,-0.658689368322,0.11316242435,-0.720910862634,-0.183330602769,-1.0,0.0,0.0,0.0,0.0,0.0,0.0,0.0,0.0,0.00296697031992,-0.00141096381407,0.00319002380412,-1.0,0.0,0.0,0.0,0.0,0.0,0.0,0.0,0.0,9.73581611877,0.747996864041,1.08542477896,-1.0,0.0,0.0,0.0,0.0,0.0,0.0,0.0,0.0
1598621624432651888,4258,1598621624432496161,xsense,-0.658693343997,0.113162739714,-0.720907259028,-0.183330294268,-1.0,0.0,0.0,0.0,0.0,0.0,0.0,0.0,0.0,0.00152687894394,-1.0916354467e-05,3.74131894916e-05,-1.0,0.0,0.0,0.0,0.0,0.0,0.0,0.0,0.0,9.76253840538,0.743179808033,1.03795452405,-1.0,0.0,0.0,0.0,0.0,0.0,0.0,0.0,0.0
1598621624432987638,4259,1598621624432838316,xsense,-0.658695568285,0.113145843378,-0.720906283717,-0.183336566304,-1.0,0.0,0.0,0.0,0.0,0.0,0.0,0.0,0.0,0.00314054554752,0.00136727459776,-0.00304038165579,-1.0,0.0,0.0,0.0,0.0,0.0,0.0,0.0,0.0,9.76297311263,0.767665703158,1.03585448926,-1.0,0.0,0.0,0.0,0.0,0.0,0.0,0.0,0.0
1598621624434145710,4260,1598621624434022468,xsense,-0.658686959571,0.113148470228,-0.72090929177,-0.183354045542,-1.0,0.0,0.0,0.0,0.0,0.0,0.0,0.0,0.0,-0.00146224371789,0.00299258844072,-0.0016959175305,-1.0,0.0,0.0,0.0,0.0,0.0,0.0,0.0,0.0,9.78499281095,0.771894629618,1.08583692912,-1.0,0.0,0.0,0.0,0.0,0.0,0.0,0.0,0.0
1598621624434413141,4261,1598621624434284549,xsense,-0.658683460636,0.113130186059,-0.720910821837,-0.183371880737,-1.0,0.0,0.0,0.0,0.0,0.0,0.0,0.0,0.0,0.00166419440986,0.00283513806555,-0.00466899941886,-1.0,0.0,0.0,0.0,0.0,0.0,0.0,0.0,0.0,9.73939881668,0.817194641028,1.03084929025,-1.0,0.0,0.0,0.0,0.0,0.0,0.0,0.0,0.0
1598621624473778346,4262,1598621624473268240,xsense,-0.658693159179,0.113131890053,-0.720904712348,-0.183360009865,-1.0,0.0,0.0,0.0,0.0,0.0,0.0,0.0,0.0,0.00300328207291,-0.00147860628288,0.00166617763133,-1.0,0.0,0.0,0.0,0.0,0.0,0.0,0.0,0.0,9.76169727818,0.770557109003,1.06068260991,-1.0,0.0,0.0,0.0,0.0,0.0,0.0,0.0,0.0
1598621624474873069,4263,1598621624474429072,xsense,-0.658694572528,0.113142668774,-0.720901844442,-0.18335955744,-1.0,0.0,0.0,0.0,0.0,0.0,0.0,0.0,0.0,-3.63494490788e-05,6.78817367275e-05,0.00152398615899,-1.0,0.0,0.0,0.0,0.0,0.0,0.0,0.0,0.0,9.76262042581,0.819047158999,1.05630226138,-1.0,0.0,0.0,0.0,0.0,0.0,0.0,0.0,0.0
1598621624475267187,4264,1598621624474870252,xsense,-0.658685654743,0.113149538407,-0.720913838463,-0.183340196646,-1.0,0.0,0.0,0.0,0.0,0.0,0.0,0.0,0.0,0.00297299699512,0.00323146975488,0.00451232305841,-1.0,0.0,0.0,0.0,0.0,0.0,0.0,0.0,0.0,9.76127034332,0.745823119345,1.06290243183,-1.0,0.0,0.0,0.0,0.0,0.0,0.0,0.0,0.0
1598621624477864001,4265,1598621624477546963,xsense,-0.658676177849,0.113156976079,-0.720920906511,-0.183341861159,-1.0,0.0,0.0,0.0,0.0,0.0,0.0,0.0,0.0,-8.0172779891e-06,0.00311746002241,0.00138938802415,-1.0,0.0,0.0,0.0,0.0,0.0,0.0,0.0,0.0,9.76242130437,0.743380675968,1.03891163894,-1.0,0.0,0.0,0.0,0.0,0.0,0.0,0.0,0.0
1598621624522435483,4266,1598621624521956805,xsense,-0.658669262864,0.113153950836,-0.720927239217,-0.183343669984,-1.0,0.0,0.0,0.0,0.0,0.0,0.0,0.0,0.0,0.00155525886127,0.00303864437629,-9.70889776174e-05,-1.0,0.0,0.0,0.0,0.0,0.0,0.0,0.0,0.0,9.7612306873,0.745495991672,1.06349593414,-1.0,0.0,0.0,0.0,0.0,0.0,0.0,0.0,0.0
1598621624523367430,4267,1598621624523042972,xsense,-0.658711020882,0.113143378388,-0.72089234913,-0.183337360791,-1.0,0.0,0.0,0.0,0.0,0.0,0.0,0.0,0.0,0.00456834561618,-0.00931721976795,-0.00253151617689,-1.0,0.0,0.0,0.0,0.0,0.0,0.0,0.0,0.0,9.60546320488,0.689999698665,1.23245870356,-1.0,0.0,0.0,0.0,0.0,0.0,0.0,0.0,0.0
1598621624524012898,4268,1598621624523599490,xsense,-0.658901695299,0.11311831024,-0.720718100016,-0.183352731449,-1.0,0.0,0.0,0.0,0.0,0.0,0.0,0.0,0.0,0.00610489398765,-0.0481268168826,-0.0160501937162,-1.0,0.0,0.0,0.0,0.0,0.0,0.0,0.0,0.0,9.59772208302,0.580245389627,1.3618770917,-1.0,0.0,0.0,0.0,0.0,0.0,0.0,0.0,0.0
1598621624526657312,4269,1598621624526416353,xsense,-0.659142425016,0.113076350268,-0.720491953035,-0.183402148748,-1.0,0.0,0.0,0.0,0.0,0.0,0.0,0.0,0.0,0.00471864609612,-0.0607896965708,-0.0262158781308,-1.0,0.0,0.0,0.0,0.0,0.0,0.0,0.0,0.0,9.85423597824,0.656638695308,1.14116814337,-1.0,0.0,0.0,0.0,0.0,0.0,0.0,0.0,0.0
1598621624527263700,4270,1598621624527034415,xsense,-0.659483361875,0.112958523767,-0.720187866753,-0.183443462409,-1.0,0.0,0.0,0.0,0.0,0.0,0.0,0.0,0.0,0.018625012256,-0.0829107059369,-0.0401817198729,-1.0,0.0,0.0,0.0,0.0,0.0,0.0,0.0,0.0,9.58929592441,0.683663766057,1.07050538603,-1.0,0.0,0.0,0.0,0.0,0.0,0.0,0.0,0.0
1598621624563653779,4271,1598621624563391600,xsense,-0.659836428146,0.112811809154,-0.719868992373,-0.18351571493,-1.0,0.0,0.0,0.0,0.0,0.0,0.0,0.0,0.0,0.0188233694766,-0.0848432199759,-0.0492577718511,-1.0,0.0,0.0,0.0,0.0,0.0,0.0,0.0,0.0,9.75683820013,0.668127233108,1.14535131838,-1.0,0.0,0.0,0.0,0.0,0.0,0.0,0.0,0.0
1598621624564954866,4272,1598621624564545525,xsense,-0.660228673033,0.112621655062,-0.719516434855,-0.183604362935,-1.0,0.0,0.0,0.0,0.0,0.0,0.0,0.0,0.0,0.0235822317794,-0.0929730061854,-0.0594805948043,-1.0,0.0,0.0,0.0,0.0,0.0,0.0,0.0,0.0,9.71238126302,0.692050809187,1.05925330131,-1.0,0.0,0.0,0.0,0.0,0.0,0.0,0.0,0.0
1598621624565339049,4273,1598621624565033233,xsense,-0.660589831824,0.112411838123,-0.719185340509,-0.183731050011,-1.0,0.0,0.0,0.0,0.0,0.0,0.0,0.0,0.0,0.0207404426125,-0.0840783483915,-0.0660531259787,-1.0,0.0,0.0,0.0,0.0,0.0,0.0,0.0,0.0,9.72548983382,0.798059568121,0.796707984121,-1.0,0.0,0.0,0.0,0.0,0.0,0.0,0.0,0.0
1598621624565920935,4274,1598621624565504665,xsense,-0.660814291123,0.112237649665,-0.718976332161,-0.18384835174,-1.0,0.0,0.0,0.0,0.0,0.0,0.0,0.0,0.0,0.0145654165833,-0.0498131841121,-0.05244706054,-1.0,0.0,0.0,0.0,0.0,0.0,0.0,0.0,0.0,10.0455157479,0.919728009806,0.768920080635,-1.0,0.0,0.0,0.0,0.0,0.0,0.0,0.0,0.0
1598621624603652470,4275,1598621624603240823,xsense,-0.660947369579,0.112106837895,-0.718852939462,-0.183932278216,-1.0,0.0,0.0,0.0,0.0,0.0,0.0,0.0,0.0,0.0113127353565,-0.0276951505665,-0.0367051511549,-1.0,0.0,0.0,0.0,0.0,0.0,0.0,0.0,0.0,9.87508197284,1.02562214917,0.772973973263,-1.0,0.0,0.0,0.0,0.0,0.0,0.0,0.0,0.0
1598621624604205516,4276,1598621624603936073,xsense,-0.661013379955,0.112015601476,-0.718794602379,-0.183978629566,-1.0,0.0,0.0,0.0,0.0,0.0,0.0,0.0,0.0,0.00957227261905,-0.0117528131775,-0.0221815087958,-1.0,0.0,0.0,0.0,0.0,0.0,0.0,0.0,0.0,9.8944805535,1.06365284298,0.891264770031,-1.0,0.0,0.0,0.0,0.0,0.0,0.0,0.0,0.0
1598621624605699820,4277,1598621624605220238,xsense,-0.661024461797,0.112011924519,-0.718789336501,-0.183961624811,-1.0,0.0,0.0,0.0,0.0,0.0,0.0,0.0,0.0,0.0045376570234,-0.00147995442577,0.00169237921808,-1.0,0.0,0.0,0.0,0.0,0.0,0.0,0.0,0.0,9.81674341818,0.974843909888,0.968962787216,-1.0,0.0,0.0,0.0,0.0,0.0,0.0,0.0,0.0
1598621624605974232,4278,1598621624605703412,xsense,-0.660998268502,0.112068586394,-0.718817532062,-0.183911056171,-1.0,0.0,0.0,0.0,0.0,0.0,0.0,0.0,0.0,-0.00032399810081,0.00533115211664,0.0165588486905,-1.0,0.0,0.0,0.0,0.0,0.0,0.0,0.0,0.0,9.74258416617,0.901805480277,0.972495022343,-1.0,0.0,0.0,0.0,0.0,0.0,0.0,0.0,0.0
1598621624652753892,4279,1598621624652476209,xsense,-0.661024396819,0.112151832359,-0.718801587136,-0.183828701892,-1.0,0.0,0.0,0.0,0.0,0.0,0.0,0.0,0.0,0.000994342736588,-0.0097170626731,0.0218484324512,-1.0,0.0,0.0,0.0,0.0,0.0,0.0,0.0,0.0,9.68777848127,0.913666290384,1.11590419834,-1.0,0.0,0.0,0.0,0.0,0.0,0.0,0.0,0.0
1598621624654348300,4280,1598621624654102222,xsense,-0.661398350475,0.112415313799,-0.71848792442,-0.1835486902,-1.0,0.0,0.0,0.0,0.0,0.0,0.0,0.0,0.0,0.00439871731305,-0.0545427125143,0.0277603980228,-1.0,0.0,0.0,0.0,0.0,0.0,0.0,0.0,0.0,9.56223480285,0.745550716296,1.1687559402,-1.0,0.0,0.0,0.0,0.0,0.0,0.0,0.0,0.0
1598621624654702141,4281,1598621624654482043,xsense,-0.661764729965,0.112536384614,-0.718163278311,-0.183424398589,-1.0,0.0,0.0,0.0,0.0,0.0,0.0,0.0,0.0,0.00666738970973,-0.101779990248,0.0138965007625,-1.0,0.0,0.0,0.0,0.0,0.0,0.0,0.0,0.0,9.68928259827,0.70778541731,1.06875390913,-1.0,0.0,0.0,0.0,0.0,0.0,0.0,0.0,0.0
1598621624655077465,4282,1598621624654826892,xsense,-0.662175413533,0.112642787394,-0.717802851684,-0.183287725378,-1.0,0.0,0.0,0.0,0.0,0.0,0.0,0.0,0.0,0.0112310394797,-0.11261563318,0.0114238092761,-1.0,0.0,0.0,0.0,0.0,0.0,0.0,0.0,0.0,9.7400429219,0.75470986711,1.05591444771,-1.0,0.0,0.0,0.0,0.0,0.0,0.0,0.0,0.0
1598621624693286657,4283,1598621624692869276,xsense,-0.662604409142,0.112770796849,-0.717429531268,-0.183120211959,-1.0,0.0,0.0,0.0,0.0,0.0,0.0,0.0,0.0,0.0125949623224,-0.118445268615,0.0178259796417,-1.0,0.0,0.0,0.0,0.0,0.0,0.0,0.0,0.0,9.74285480317,0.976638744601,1.07339550355,-1.0,0.0,0.0,0.0,0.0,0.0,0.0,0.0,0.0
1598621624693869516,4284,1598621624693532888,xsense,-0.663042088678,0.112961680593,-0.717051160043,-0.182900194752,-1.0,0.0,0.0,0.0,0.0,0.0,0.0,0.0,0.0,0.0107346923893,-0.123841195131,0.0333124018063,-1.0,0.0,0.0,0.0,0.0,0.0,0.0,0.0,0.0,9.74606374157,1.02068317928,1.0327821607,-1.0,0.0,0.0,0.0,0.0,0.0,0.0,0.0,0.0
1598621624696234450,4285,1598621624695821582,xsense,-0.66344911468,0.113281721881,-0.716695424333,-0.182620350613,-1.0,0.0,0.0,0.0,0.0,0.0,0.0,0.0,0.0,-0.000455411141743,-0.122527449124,0.0605437839009,-1.0,0.0,0.0,0.0,0.0,0.0,0.0,0.0,0.0,9.82654946153,1.0771099173,0.895364015678,-1.0,0.0,0.0,0.0,0.0,0.0,0.0,0.0,0.0
1598621624696767305,4286,1598621624696341129,xsense,-0.663795791536,0.113637598715,-0.716400426188,-0.182296661116,-1.0,0.0,0.0,0.0,0.0,0.0,0.0,0.0,0.0,-0.000611092113511,-0.108112310386,0.0751655599229,-1.0,0.0,0.0,0.0,0.0,0.0,0.0,0.0,0.0,9.92858457325,0.909993873903,0.754986509292,-1.0,0.0,0.0,0.0,0.0,0.0,0.0,0.0,0.0
1598621624733583926,4287,1598621624733092055,xsense,-0.664006074518,0.113983476352,-0.716239819315,-0.181945654935,-1.0,0.0,0.0,0.0,0.0,0.0,0.0,0.0,0.0,0.00254410573601,-0.0709892838893,0.0857601735582,-1.0,0.0,0.0,0.0,0.0,0.0,0.0,0.0,0.0,9.95394413336,0.775684493367,0.709359729606,-1.0,0.0,0.0,0.0,0.0,0.0,0.0,0.0,0.0
1598621624734238067,4288,1598621624733846682,xsense,-0.664144453976,0.114290174843,-0.71614922156,-0.181604495115,-1.0,0.0,0.0,0.0,0.0,0.0,0.0,0.0,0.0,0.00581387867703,-0.0497368946574,0.0833249455924,-1.0,0.0,0.0,0.0,0.0,0.0,0.0,0.0,0.0,9.88001817249,0.620304822095,0.689701641832,-1.0,0.0,0.0,0.0,0.0,0.0,0.0,0.0,0.0
1598621624736826297,4289,1598621624736491622,xsense,-0.664207080633,0.114519928315,-0.716117697546,-0.181354854683,-1.0,0.0,0.0,0.0,0.0,0.0,0.0,0.0,0.0,0.00328635273016,-0.0261542540963,0.0638793976202,-1.0,0.0,0.0,0.0,0.0,0.0,0.0,0.0,0.0,9.82703516018,0.576298267359,0.810159576465,-1.0,0.0,0.0,0.0,0.0,0.0,0.0,0.0,0.0
1598621624737344402,4290,1598621624737091001,xsense,-0.664310671298,0.114696633919,-0.716044341537,-0.181153291776,-1.0,0.0,0.0,0.0,0.0,0.0,0.0,0.0,0.0,0.00501588437474,-0.0345522333432,0.0474849725382,-1.0,0.0,0.0,0.0,0.0,0.0,0.0,0.0,0.0,9.70040595645,0.561840256178,0.951011201468,-1.0,0.0,0.0,0.0,0.0,0.0,0.0,0.0,0.0
1598621624783039918,4291,1598621624782817080,xsense,-0.664464899281,0.114828725111,-0.715920744864,-0.18099239925,-1.0,0.0,0.0,0.0,0.0,0.0,0.0,0.0,0.0,0.00668614274938,-0.0459305551766,0.0327526506558,-1.0,0.0,0.0,0.0,0.0,0.0,0.0,0.0,0.0,9.69901820146,0.6663516573,1.05974556228,-1.0,0.0,0.0,0.0,0.0,0.0,0.0,0.0,0.0
1598621624783315448,4292,1598621624783185437,xsense,-0.664681940991,0.114963827034,-0.715737168027,-0.180835677063,-1.0,0.0,0.0,0.0,0.0,0.0,0.0,0.0,0.0,0.0065946210091,-0.06290775022,0.0289404328034,-1.0,0.0,0.0,0.0,0.0,0.0,0.0,0.0,0.0,9.70422513241,0.804836752557,0.992565344217,-1.0,0.0,0.0,0.0,0.0,0.0,0.0,0.0,0.0
1598621624784391800,4293,1598621624784221608,xsense,-0.664994245584,0.115165256281,-0.715476757154,-0.180589664871,-1.0,0.0,0.0,0.0,0.0,0.0,0.0,0.0,0.0,0.0106523506687,-0.0912141273974,0.0455714972835,-1.0,0.0,0.0,0.0,0.0,0.0,0.0,0.0,0.0,9.53247349239,0.93914704509,1.11424887354,-1.0,0.0,0.0,0.0,0.0,0.0,0.0,0.0,0.0
1598621624784638448,4294,1598621624784463250,xsense,-0.665462014562,0.115522637486,-0.715087315575,-0.180180349946,-1.0,0.0,0.0,0.0,0.0,0.0,0.0,0.0,0.0,0.0126948421967,-0.140011523695,0.081438318586,-1.0,0.0,0.0,0.0,0.0,0.0,0.0,0.0,0.0,9.63252101108,1.03317278053,1.1458978182,-1.0,0.0,0.0,0.0,0.0,0.0,0.0,0.0,0.0
1598621624784834481,4295,1598621624784696158,xsense,-0.665963744901,0.115956208224,-0.714668855488,-0.179707749546,-1.0,0.0,0.0,0.0,0.0,0.0,0.0,0.0,0.0,0.0107899916314,-0.152946894478,0.0988070749101,-1.0,0.0,0.0,0.0,0.0,0.0,0.0,0.0,0.0,9.83313589842,0.881565024982,0.954133638094,-1.0,0.0,0.0,0.0,0.0,0.0,0.0,0.0,0.0
1598621624822651605,4296,1598621624822483677,xsense,-0.666368223593,0.116382335602,-0.714336719285,-0.179252877315,-1.0,0.0,0.0,0.0,0.0,0.0,0.0,0.0,0.0,0.00798382604762,-0.126861562062,0.100631768467,-1.0,0.0,0.0,0.0,0.0,0.0,0.0,0.0,0.0,9.96470709976,0.765216026007,0.610166506359,-1.0,0.0,0.0,0.0,0.0,0.0,0.0,0.0,0.0
1598621624822974568,4297,1598621624822809960,xsense,-0.666653738513,0.116794746269,-0.714108764119,-0.178830794828,-1.0,0.0,0.0,0.0,0.0,0.0,0.0,0.0,0.0,0.00375120003824,-0.094732760072,0.100633148514,-1.0,0.0,0.0,0.0,0.0,0.0,0.0,0.0,0.0,10.0134452107,0.575116865955,0.518760074272,-1.0,0.0,0.0,0.0,0.0,0.0,0.0,0.0,0.0
1598621624823435335,4298,1598621624823282541,xsense,-0.666759538925,0.11713146672,-0.714035441557,-0.178508613115,-1.0,0.0,0.0,0.0,0.0,0.0,0.0,0.0,0.0,-0.00159174476702,-0.0434007974067,0.0859918284211,-1.0,0.0,0.0,0.0,0.0,0.0,0.0,0.0,0.0,10.0399133328,0.587316008811,0.485955007563,-1.0,0.0,0.0,0.0,0.0,0.0,0.0,0.0,0.0
1598621624823605162,4299,1598621624823498764,xsense,-0.666723956305,0.117403609591,-0.714086589626,-0.178257962125,-1.0,0.0,0.0,0.0,0.0,0.0,0.0,0.0,0.0,-0.00403090479585,-0.00263082438204,0.0749273451066,-1.0,0.0,0.0,0.0,0.0,0.0,0.0,0.0,0.0,9.88998436259,0.598185135359,0.649947233063,-1.0,0.0,0.0,0.0,0.0,0.0,0.0,0.0,0.0
1598621624863951191,4300,1598621624863516361,xsense,-0.666640435145,0.117606916381,-0.714174756075,-0.178083017815,-1.0,0.0,0.0,0.0,0.0,0.0,0.0,0.0,0.0,-0.0051440732246,0.0133837552913,0.057375322832,-1.0,0.0,0.0,0.0,0.0,0.0,0.0,0.0,0.0,9.8386078874,0.603931620293,0.770743884091,-1.0,0.0,0.0,0.0,0.0,0.0,0.0,0.0,0.0
1598621624864458777,4301,1598621624864079650,xsense,-0.666531271359,0.117792899355,-0.71427510344,-0.177966215244,-1.0,0.0,0.0,0.0,0.0,0.0,0.0,0.0,0.0,-0.0110436204386,0.0206569091381,0.0478017007831,-1.0,0.0,0.0,0.0,0.0,0.0,0.0,0.0,0.0,9.81185797011,0.502054329087,0.780704937782,-1.0,0.0,0.0,0.0,0.0,0.0,0.0,0.0,0.0
1598621624866900982,4302,1598621624866443150,xsense,-0.666405355749,0.117830035031,-0.714394267126,-0.177934863845,-1.0,0.0,0.0,0.0,0.0,0.0,0.0,0.0,0.0,-0.00132890276864,0.0328675483823,0.0168128699921,-1.0,0.0,0.0,0.0,0.0,0.0,0.0,0.0,0.0,9.81290974156,0.441287217216,0.690583244685,-1.0,0.0,0.0,0.0,0.0,0.0,0.0,0.0,0.0
1598621624867170644,4303,1598621624866897841,xsense,-0.666214670656,0.117794233726,-0.714558275256,-0.178014051035,-1.0,0.0,0.0,0.0,0.0,0.0,0.0,0.0,0.0,-0.0068920609742,0.0533023725437,-0.0055810440572,-1.0,0.0,0.0,0.0,0.0,0.0,0.0,0.0,0.0,9.88647494287,0.463251832055,0.694599419141,-1.0,0.0,0.0,0.0,0.0,0.0,0.0,0.0,0.0
1598621624913296865,4304,1598621624912782784,xsense,-0.666005326781,0.117664890619,-0.714737039369,-0.178165212006,-1.0,0.0,0.0,0.0,0.0,0.0,0.0,0.0,0.0,-0.00342705257684,0.0629578726135,-0.0273643830638,-1.0,0.0,0.0,0.0,0.0,0.0,0.0,0.0,0.0,9.78529757129,0.478338791504,0.819181894894,-1.0,0.0,0.0,0.0,0.0,0.0,0.0,0.0,0.0
1598621624913954267,4305,1598621624913555579,xsense,-0.665818088342,0.117488281179,-0.714887438608,-0.178378045576,-1.0,0.0,0.0,0.0,0.0,0.0,0.0,0.0,0.0,-0.00477667104786,0.059159501239,-0.0440138305669,-1.0,0.0,0.0,0.0,0.0,0.0,0.0,0.0,0.0,9.71205921755,0.613970721555,0.909240434935,-1.0,0.0,0.0,0.0,0.0,0.0,0.0,0.0,0.0
1598621624916178881,4306,1598621624915758471,xsense,-0.665694043658,0.117291256811,-0.714988640623,-0.178564960428,-1.0,0.0,0.0,0.0,0.0,0.0,0.0,0.0,0.0,0.00270362697139,0.0436880307705,-0.046259959998,-1.0,0.0,0.0,0.0,0.0,0.0,0.0,0.0,0.0,9.71378673156,0.742102721742,0.92747238175,-1.0,0.0,0.0,0.0,0.0,0.0,0.0,0.0,0.0
1598621624916667737,4307,1598621624916354293,xsense,-0.665597407071,0.117124795034,-0.715063533845,-0.17873448647,-1.0,0.0,0.0,0.0,0.0,0.0,0.0,0.0,0.0,0.000999300611386,0.0347691409114,-0.0412934572484,-1.0,0.0,0.0,0.0,0.0,0.0,0.0,0.0,0.0,9.76316678326,0.767341885988,0.906179295559,-1.0,0.0,0.0,0.0,0.0,0.0,0.0,0.0,0.0
1598621624917112761,4308,1598621624916771578,xsense,-0.665489014643,0.116959814018,-0.715152440046,-0.178890359695,-1.0,0.0,0.0,0.0,0.0,0.0,0.0,0.0,0.0,0.00252374515396,0.0379405072707,-0.0383608998579,-1.0,0.0,0.0,0.0,0.0,0.0,0.0,0.0,0.0,9.81279366286,0.712624299104,0.818379419099,-1.0,0.0,0.0,0.0,0.0,0.0,0.0,0.0,0.0
1598621624953244534,4309,1598621624952953670,xsense,-0.665374936361,0.116816291405,-0.715237868432,-0.179066858144,-1.0,0.0,0.0,0.0,0.0,0.0,0.0,0.0,0.0,-0.00358440717367,0.0380080510591,-0.0384517617593,-1.0,0.0,0.0,0.0,0.0,0.0,0.0,0.0,0.0,9.78781050768,0.716921886282,0.821377444362,-1.0,0.0,0.0,0.0,0.0,0.0,0.0,0.0,0.0
1598621624954550761,4310,1598621624954181072,xsense,-0.665285460394,0.116645535282,-0.715313332895,-0.179209126635,-1.0,0.0,0.0,0.0,0.0,0.0,0.0,0.0,0.0,0.00552372647861,0.0333359427423,-0.0381055146883,-1.0,0.0,0.0,0.0,0.0,0.0,0.0,0.0,0.0,9.76087541837,0.701355686581,0.874939848214,-1.0,0.0,0.0,0.0,0.0,0.0,0.0,0.0,0.0
1598621624955195672,4311,1598621624954838912,xsense,-0.665196467563,0.116519905201,-0.7153816323,-0.179348519372,-1.0,0.0,0.0,0.0,0.0,0.0,0.0,0.0,0.0,-0.000708078724008,0.0306316359658,-0.0319630953192,-1.0,0.0,0.0,0.0,0.0,0.0,0.0,0.0,0.0,9.73304068516,0.740773805395,0.996590712637,-1.0,0.0,0.0,0.0,0.0,0.0,0.0,0.0,0.0
1598621624955678859,4312,1598621624955310939,xsense,-0.665174881463,0.116430292678,-0.715396759443,-0.17942642112,-1.0,0.0,0.0,0.0,0.0,0.0,0.0,0.0,0.0,0.00350686801335,0.0111857421243,-0.0218463049424,-1.0,0.0,0.0,0.0,0.0,0.0,0.0,0.0,0.0,9.68428475629,0.795268452829,1.0169796304,-1.0,0.0,0.0,0.0,0.0,0.0,0.0,0.0,0.0
1598621624982770630,4313,1598621624982343865,xsense,-0.665215986336,0.116370505659,-0.715357285471,-0.179470195463,-1.0,0.0,0.0,0.0,0.0,0.0,0.0,0.0,0.0,0.00475285395253,-0.00691303039265,-0.0164182125032,-1.0,0.0,0.0,0.0,0.0,0.0,0.0,0.0,0.0,9.73374451143,0.767384105614,0.972274879,-1.0,0.0,0.0,0.0,0.0,0.0,0.0,0.0,0.0
