%time,field.header.seq,field.header.stamp,field.header.frame_id,field.orientation.x,field.orientation.y,field.orientation.z,field.orientation.w,field.orientation_covariance0,field.orientation_covariance1,field.orientation_covariance2,field.orientation_covariance3,field.orientation_covariance4,field.orientation_covariance5,field.orientation_covariance6,field.orientation_covariance7,field.orientation_covariance8,field.angular_velocity.x,field.angular_velocity.y,field.angular_velocity.z,field.angular_velocity_covariance0,field.angular_velocity_covariance1,field.angular_velocity_covariance2,field.angular_velocity_covariance3,field.angular_velocity_covariance4,field.angular_velocity_covariance5,field.angular_velocity_covariance6,field.angular_velocity_covariance7,field.angular_velocity_covariance8,field.linear_acceleration.x,field.linear_acceleration.y,field.linear_acceleration.z,field.linear_acceleration_covariance0,field.linear_acceleration_covariance1,field.linear_acceleration_covariance2,field.linear_acceleration_covariance3,field.linear_acceleration_covariance4,field.linear_acceleration_covariance5,field.linear_acceleration_covariance6,field.linear_acceleration_covariance7,field.linear_acceleration_covariance8
1596620936826045781,1825,1596620936825599417,xsense,-0.0126816029089,0.0030520941836,0.561654238561,0.827269229438,-1.0,0.0,0.0,0.0,0.0,0.0,0.0,0.0,0.0,0.00154482014765,0.0030876989746,-0.00143741941044,-1.0,0.0,0.0,0.0,0.0,0.0,0.0,0.0,0.0,-0.202286710937,-0.195421647948,9.82793464664,-1.0,0.0,0.0,0.0,0.0,0.0,0.0,0.0,0.0
1596620936829031067,1826,1596620936828415628,xsense,-0.012685966487,0.00304014133761,0.561654791063,0.82726883144,-1.0,0.0,0.0,0.0,0.0,0.0,0.0,0.0,0.0,-0.00302890095009,0.00302952690788,-0.00162218370051,-1.0,0.0,0.0,0.0,0.0,0.0,0.0,0.0,0.0,-0.180870959008,-0.170938379364,9.8546386207,-1.0,0.0,0.0,0.0,0.0,0.0,0.0,0.0,0.0
1596620936845468341,1827,1596620936845013457,xsense,-0.0126886836974,0.0030396189607,0.561654145632,0.827269229887,-1.0,0.0,0.0,0.0,0.0,0.0,0.0,0.0,0.0,-0.00152483425502,0.0045758593866,-0.00154769910953,-1.0,0.0,0.0,0.0,0.0,0.0,0.0,0.0,0.0,-0.203610683099,-0.171322873597,9.82832661637,-1.0,0.0,0.0,0.0,0.0,0.0,0.0,0.0,0.0
1596620936847179278,1828,1596620936846585715,xsense,-0.0126749065493,0.00304105180125,0.56166230515,0.827263896059,-1.0,0.0,0.0,0.0,0.0,0.0,0.0,0.0,0.0,0.00148353635908,0.00307326754199,8.74170552557e-05,-1.0,0.0,0.0,0.0,0.0,0.0,0.0,0.0,0.0,-0.202673458777,-0.220129942182,9.82749527446,-1.0,0.0,0.0,0.0,0.0,0.0,0.0,0.0,0.0
1596620936866835873,1829,1596620936866429772,xsense,-0.0126899388402,0.00303193359827,0.56165488951,0.827268733798,-1.0,0.0,0.0,0.0,0.0,0.0,0.0,0.0,0.0,-0.00451263941234,0.0045515158572,-0.00319580800374,-1.0,0.0,0.0,0.0,0.0,0.0,0.0,0.0,0.0,-0.179374673607,-0.195259186172,9.8298684543,-1.0,0.0,0.0,0.0,0.0,0.0,0.0,0.0,0.0
1596620936869141693,1830,1596620936868596959,xsense,-0.0126721554302,0.00302711847583,0.561647638669,0.827273946772,-1.0,0.0,0.0,0.0,0.0,0.0,0.0,0.0,0.0,0.00162671772303,0.00157540575276,-0.00297480290205,-1.0,0.0,0.0,0.0,0.0,0.0,0.0,0.0,0.0,-0.177708375626,-0.194942518513,9.8055294132,-1.0,0.0,0.0,0.0,0.0,0.0,0.0,0.0,0.0
1596620936885957236,1831,1596620936885615889,xsense,-0.0126838087105,0.00303897803468,0.561653215337,0.8272699386,-1.0,0.0,0.0,0.0,0.0,0.0,0.0,0.0,0.0,-0.00162739366412,0.00761519086126,2.75234403463e-06,-1.0,0.0,0.0,0.0,0.0,0.0,0.0,0.0,0.0,-0.177498598983,-0.219346916462,9.80510883607,-1.0,0.0,0.0,0.0,0.0,0.0,0.0,0.0,0.0
1596620936887755117,1832,1596620936887195057,xsense,-0.0126783101665,0.00302544039461,0.561645533584,0.827275287777,-1.0,0.0,0.0,0.0,0.0,0.0,0.0,0.0,0.0,-0.00142230109966,0.00153651926852,-0.00309828041435,-1.0,0.0,0.0,0.0,0.0,0.0,0.0,0.0,0.0,-0.207512922932,-0.172247150845,9.85260877111,-1.0,0.0,0.0,0.0,0.0,0.0,0.0,0.0,0.0
1596620936905903009,1833,1596620936905533170,xsense,-0.0126812181636,0.00302478157137,0.561651196501,0.827271400975,-1.0,0.0,0.0,0.0,0.0,0.0,0.0,0.0,0.0,-0.00158633465848,0.00456131494849,-2.3041064418e-05,-1.0,0.0,0.0,0.0,0.0,0.0,0.0,0.0,0.0,-0.179555919873,-0.17084607963,9.805914806,-1.0,0.0,0.0,0.0,0.0,0.0,0.0,0.0,0.0
1596620936908597012,1834,1596620936908142155,xsense,-0.0126758739465,0.00303894884333,0.561653278326,0.827270017561,-1.0,0.0,0.0,0.0,0.0,0.0,0.0,0.0,0.0,0.0015036618068,0.00614176021763,-0.00141117450979,-1.0,0.0,0.0,0.0,0.0,0.0,0.0,0.0,0.0,-0.185317959019,-0.19664780976,9.87848313346,-1.0,0.0,0.0,0.0,0.0,0.0,0.0,0.0,0.0
1596620936927277573,1835,1596620936926516166,xsense,-0.0126677755447,0.00303666940587,0.561646598332,0.827274685146,-1.0,0.0,0.0,0.0,0.0,0.0,0.0,0.0,0.0,8.1811285983e-05,0.00308294334429,-0.00302357522413,-1.0,0.0,0.0,0.0,0.0,0.0,0.0,0.0,0.0,-0.232454042091,-0.197355866582,9.85018923362,-1.0,0.0,0.0,0.0,0.0,0.0,0.0,0.0,0.0
1596620936928993665,1836,1596620936928761554,xsense,-0.0126879581157,0.00303325812191,0.561652800371,0.827270177693,-1.0,0.0,0.0,0.0,0.0,0.0,0.0,0.0,0.0,-0.00465618431233,0.00604920190217,-0.000134027713858,-1.0,0.0,0.0,0.0,0.0,0.0,0.0,0.0,0.0,-0.182281448214,-0.195871811599,9.82980279421,-1.0,0.0,0.0,0.0,0.0,0.0,0.0,0.0,0.0
1596620936931906644,1837,1596620936931385685,xsense,-0.0126696153943,0.00302881342777,0.561659012637,0.827266257416,-1.0,0.0,0.0,0.0,0.0,0.0,0.0,0.0,0.0,0.00150393102486,0.00154644936901,7.48865458617e-05,-1.0,0.0,0.0,0.0,0.0,0.0,0.0,0.0,0.0,-0.183314156735,-0.171625148014,9.83020650368,-1.0,0.0,0.0,0.0,0.0,0.0,0.0,0.0,0.0
1596620936947903908,1838,1596620936947327557,xsense,-0.0126731005107,0.00302798646869,0.561664807794,0.827262272503,-1.0,0.0,0.0,0.0,0.0,0.0,0.0,0.0,0.0,-0.00158643982936,0.00456130025752,-2.31455028804e-05,-1.0,0.0,0.0,0.0,0.0,0.0,0.0,0.0,0.0,-0.20728050137,-0.19665461239,9.82780599723,-1.0,0.0,0.0,0.0,0.0,0.0,0.0,0.0,0.0
1596620936949270310,1839,1596620936948837061,xsense,-0.012665192431,0.00302557148728,0.561664436686,0.827262654409,-1.0,0.0,0.0,0.0,0.0,0.0,0.0,0.0,0.0,2.03677024905e-05,0.00306845166275,-0.00149880392419,-1.0,0.0,0.0,0.0,0.0,0.0,0.0,0.0,0.0,-0.183328450655,-0.196109168587,9.82977858854,-1.0,0.0,0.0,0.0,0.0,0.0,0.0,0.0,0.0
1596620936975652971,1840,1596620936975255010,xsense,-0.012678919589,0.00302667287341,0.56166459449,0.827262332967,-1.0,0.0,0.0,0.0,0.0,0.0,0.0,0.0,0.0,-0.00307002435351,0.00608328879079,-0.00159693317874,-1.0,0.0,0.0,0.0,0.0,0.0,0.0,0.0,0.0,-0.210732202565,-0.172950937418,9.85252811398,-1.0,0.0,0.0,0.0,0.0,0.0,0.0,0.0,0.0
1596620936977258580,1841,1596620936976697532,xsense,-0.012681636979,0.00302615070335,0.561663948404,0.827262731881,-1.0,0.0,0.0,0.0,0.0,0.0,0.0,0.0,0.0,-0.00152481952135,0.00457588962111,-0.00154784722716,-1.0,0.0,0.0,0.0,0.0,0.0,0.0,0.0,0.0,-0.159970753944,-0.195865959688,9.83173735869,-1.0,0.0,0.0,0.0,0.0,0.0,0.0,0.0,0.0
1596620936995186785,1842,1596620936994906550,xsense,-0.0126797934483,0.00301840099894,0.561666126121,0.827261309903,-1.0,0.0,0.0,0.0,0.0,0.0,0.0,0.0,0.0,-0.00150415524446,0.00304895191616,-0.00156082725394,-1.0,0.0,0.0,0.0,0.0,0.0,0.0,0.0,0.0,-0.185328559368,-0.172240773173,9.83015796532,-1.0,0.0,0.0,0.0,0.0,0.0,0.0,0.0,0.0
1596620936996966158,1843,1596620936996290096,xsense,-0.0126718850316,0.00301598611399,0.561665755528,0.8272616915,-1.0,0.0,0.0,0.0,0.0,0.0,0.0,0.0,0.0,2.03954905571e-05,0.00306851015771,-0.0014987129517,-1.0,0.0,0.0,0.0,0.0,0.0,0.0,0.0,0.0,-0.184965362209,-0.196718111604,9.82973575565,-1.0,0.0,0.0,0.0,0.0,0.0,0.0,0.0,0.0
1596620937016352284,1844,1596620937015521113,xsense,-0.0126586644698,0.00301709795495,0.561671521875,0.827257974787,-1.0,0.0,0.0,0.0,0.0,0.0,0.0,0.0,0.0,0.00148317124763,0.0030734546776,8.81157511652e-05,-1.0,0.0,0.0,0.0,0.0,0.0,0.0,0.0,0.0,-0.233915914104,-0.19789662569,9.82575773364,-1.0,0.0,0.0,0.0,0.0,0.0,0.0,0.0,0.0
1596620937017903882,1845,1596620937017347643,xsense,-0.0126591201352,0.00302747519607,0.561658448812,0.827266805782,-1.0,0.0,0.0,0.0,0.0,0.0,0.0,0.0,0.0,0.000102634423789,0.00615162373976,-0.00452216480887,-1.0,0.0,0.0,0.0,0.0,0.0,0.0,0.0,0.0,-0.15941358831,-0.195478361682,9.80738312894,-1.0,0.0,0.0,0.0,0.0,0.0,0.0,0.0,0.0
1596620937035992192,1846,1596620937035456404,xsense,-0.0126522313978,0.00302418101942,0.561670594661,0.827258676873,-1.0,0.0,0.0,0.0,0.0,0.0,0.0,0.0,0.0,-0.000103292755588,0.00303927697351,0.00155063790242,-1.0,0.0,0.0,0.0,0.0,0.0,0.0,0.0,0.0,-0.186163685516,-0.196574484752,9.82971600713,-1.0,0.0,0.0,0.0,0.0,0.0,0.0,0.0,0.0
1596620937037969924,1847,1596620937037437707,xsense,-0.0126653824368,0.00302568801841,0.561663363811,0.827263379494,-1.0,0.0,0.0,0.0,0.0,0.0,0.0,0.0,0.0,-0.00300821131249,0.00609784387266,-0.00312194051372,-1.0,0.0,0.0,0.0,0.0,0.0,0.0,0.0,0.0,-0.209619938733,-0.172486323359,9.80380005842,-1.0,0.0,0.0,0.0,0.0,0.0,0.0,0.0,0.0
1596620937056015379,1848,1596620937055529163,xsense,-0.0126601060865,0.00301188317362,0.561670189732,0.827258876193,-1.0,0.0,0.0,0.0,0.0,0.0,0.0,0.0,0.0,-0.00154528178859,0.001507336772,-4.92822705526e-05,-1.0,0.0,0.0,0.0,0.0,0.0,0.0,0.0,0.0,-0.188961383846,-0.197423865572,9.85402202281,-1.0,0.0,0.0,0.0,0.0,0.0,0.0,0.0,0.0
1596620937057492676,1849,1596620937057064731,xsense,-0.0126628235152,0.00301136021129,0.561669543238,0.827259275445,-1.0,0.0,0.0,0.0,0.0,0.0,0.0,0.0,0.0,-0.00152483441679,0.00457588907231,-0.00154795209024,-1.0,0.0,0.0,0.0,0.0,0.0,0.0,0.0,0.0,-0.21160386785,-0.197735155894,9.8276921794,-1.0,0.0,0.0,0.0,0.0,0.0,0.0,0.0,0.0
1596620937076822622,1850,1596620937076425912,xsense,-0.0126599263848,0.00301433791362,0.561676278425,0.827254736031,-1.0,0.0,0.0,0.0,0.0,0.0,0.0,0.0,0.0,-6.22524983322e-05,0.00458085130948,3.90559660896e-05,-1.0,0.0,0.0,0.0,0.0,0.0,0.0,0.0,0.0,-0.186409876015,-0.17231711262,9.80576116692,-1.0,0.0,0.0,0.0,0.0,0.0,0.0,0.0,0.0
1596620937079246938,1851,1596620937078770804,xsense,-0.0126605735897,0.0030245781737,0.561669514609,0.827259281098,-1.0,0.0,0.0,0.0,0.0,0.0,0.0,0.0,0.0,4.09832336415e-05,0.0061371396368,-0.00299729261826,-1.0,0.0,0.0,0.0,0.0,0.0,0.0,0.0,0.0,-0.188251692601,-0.197191265359,9.82966388815,-1.0,0.0,0.0,0.0,0.0,0.0,0.0,0.0,0.0
1596620937080289485,1852,1596620937080022971,xsense,-0.0126718210937,0.00300819184806,0.561675657381,0.827254997952,-1.0,0.0,0.0,0.0,0.0,0.0,0.0,0.0,0.0,-0.00461516573489,0.00299497447764,-0.000161189778309,-1.0,0.0,0.0,0.0,0.0,0.0,0.0,0.0,0.0,-0.212357497317,-0.222448523671,9.82723857727,-1.0,0.0,0.0,0.0,0.0,0.0,0.0,0.0,0.0
1596620937097881271,1853,1596620937097562044,xsense,-0.0126405911216,0.00301275717984,0.561669723354,0.82725948808,-1.0,0.0,0.0,0.0,0.0,0.0,0.0,0.0,0.0,0.00467696328134,0.00161528978258,-0.00284901493642,-1.0,0.0,0.0,0.0,0.0,0.0,0.0,0.0,0.0,-0.188921018904,-0.197418860178,9.8296464779,-1.0,0.0,0.0,0.0,0.0,0.0,0.0,0.0,0.0
1596620937100274277,1854,1596620937099927829,xsense,-0.0126549075058,0.00301339665929,0.561679985985,0.82725229894,-1.0,0.0,0.0,0.0,0.0,0.0,0.0,0.0,0.0,-0.00319434313615,0.00605381700401,0.001451854552,-1.0,0.0,0.0,0.0,0.0,0.0,0.0,0.0,0.0,-0.189961304546,-0.172945853734,9.8300571537,-1.0,0.0,0.0,0.0,0.0,0.0,0.0,0.0,0.0
1596620937127573781,1855,1596620937126973178,xsense,-0.0126513730786,0.00301724020765,0.561679573372,0.827252619142,-1.0,0.0,0.0,0.0,0.0,0.0,0.0,0.0,0.0,-2.43069046511e-07,0.00459556107423,-0.00148556244031,-1.0,0.0,0.0,0.0,0.0,0.0,0.0,0.0,0.0,-0.213479186037,-0.222534326857,9.82721233157,-1.0,0.0,0.0,0.0,0.0,0.0,0.0,0.0,0.0
1596620937128644503,1856,1596620937127947355,xsense,-0.0126503660425,0.0030098611455,0.561678873721,0.827253136464,-1.0,0.0,0.0,0.0,0.0,0.0,0.0,0.0,0.0,-0.00150397762205,0.00304894192654,-0.00156112575035,-1.0,0.0,0.0,0.0,0.0,0.0,0.0,0.0,0.0,-0.188205178048,-0.197111272193,9.80529019908,-1.0,0.0,0.0,0.0,0.0,0.0,0.0,0.0,0.0
1596620937146321429,1857,1596620937145780812,xsense,-0.0126532763356,0.00300919876644,0.56168453505,0.827249250472,-1.0,0.0,0.0,0.0,0.0,0.0,0.0,0.0,0.0,-0.00158697019457,0.00456119851026,-2.34032621118e-05,-1.0,0.0,0.0,0.0,0.0,0.0,0.0,0.0,0.0,-0.215554312092,-0.173962213983,9.8280255597,-1.0,0.0,0.0,0.0,0.0,0.0,0.0,0.0,0.0
1596620937148744257,1858,1596620937148209216,xsense,-0.0126625528621,0.003003595798,0.561683371612,0.827249918841,-1.0,0.0,0.0,0.0,0.0,0.0,0.0,0.0,0.0,-0.00304928867228,0.00455624513027,-0.00161066187176,-1.0,0.0,0.0,0.0,0.0,0.0,0.0,0.0,0.0,-0.191677159427,-0.173562610411,9.83001297475,-1.0,0.0,0.0,0.0,0.0,0.0,0.0,0.0,0.0
1596620937166435434,1859,1596620937165987777,xsense,-0.012663199712,0.0030138368407,0.561676609021,0.827254463294,-1.0,0.0,0.0,0.0,0.0,0.0,0.0,0.0,0.0,4.11921682351e-05,0.00613732757462,-0.00299701791182,-1.0,0.0,0.0,0.0,0.0,0.0,0.0,0.0,0.0,-0.19418951771,-0.174186168919,9.8543282979,-1.0,0.0,0.0,0.0,0.0,0.0,0.0,0.0,0.0
1596620937168654393,1860,1596620937168299491,xsense,-0.0126740149502,0.00299805939907,0.561669351269,0.82725928271,-1.0,0.0,0.0,0.0,0.0,0.0,0.0,0.0,0.0,-0.00449069367064,0.00302428498626,-0.00321117718207,-1.0,0.0,0.0,0.0,0.0,0.0,0.0,0.0,0.0,-0.191976703148,-0.198340906822,9.82956871246,-1.0,0.0,0.0,0.0,0.0,0.0,0.0,0.0,0.0
1596620937186504006,1861,1596620937185938139,xsense,-0.0126644228858,0.00300613028862,0.561675483204,0.827255236998,-1.0,0.0,0.0,0.0,0.0,0.0,0.0,0.0,0.0,0.00146190229977,0.00460061940236,0.000102030656109,-1.0,0.0,0.0,0.0,0.0,0.0,0.0,0.0,0.0,-0.194341155347,-0.198965042134,9.85388639349,-1.0,0.0,0.0,0.0,0.0,0.0,0.0,0.0,0.0
1596620937189036585,1862,1596620937188525610,xsense,-0.0126786898258,0.00300670052066,0.561687377444,0.827246940518,-1.0,0.0,0.0,0.0,0.0,0.0,0.0,0.0,0.0,-0.00319490248007,0.00605362906617,0.00145162685098,-1.0,0.0,0.0,0.0,0.0,0.0,0.0,0.0,0.0,-0.192873539175,-0.198576427589,9.8295464014,-1.0,0.0,0.0,0.0,0.0,0.0,0.0,0.0,0.0
1596620937206956059,1863,1596620937206408472,xsense,-0.0126793363757,0.00301694225603,0.561680615487,0.827251484541,-1.0,0.0,0.0,0.0,0.0,0.0,0.0,0.0,0.0,4.13400849574e-05,0.00613744892634,-0.00299683311339,-1.0,0.0,0.0,0.0,0.0,0.0,0.0,0.0,0.0,-0.19546673612,-0.199205797871,9.85385926653,-1.0,0.0,0.0,0.0,0.0,0.0,0.0,0.0,0.0
1596620937208582288,1864,1596620937208072671,xsense,-0.0126776458342,0.00300909432124,0.561682975978,0.827249936322,-1.0,0.0,0.0,0.0,0.0,0.0,0.0,0.0,0.0,-0.00150385234627,0.00304898731086,-0.00156123525363,-1.0,0.0,0.0,0.0,0.0,0.0,0.0,0.0,0.0,-0.19192145283,-0.19833609793,9.80519346464,-1.0,0.0,0.0,0.0,0.0,0.0,0.0,0.0,0.0
1596620937226784110,1865,1596620937226008105,xsense,-0.0126845434659,0.00301496867215,0.561675978481,0.827254560289,-1.0,0.0,0.0,0.0,0.0,0.0,0.0,0.0,0.0,-0.00148318592718,0.00611773446714,-0.00305963207496,-1.0,0.0,0.0,0.0,0.0,0.0,0.0,0.0,0.0,-0.197030380028,-0.175032723298,9.85425690602,-1.0,0.0,0.0,0.0,0.0,0.0,0.0,0.0,0.0
1596620937228285655,1866,1596620937227849219,xsense,-0.0126877151542,0.00301375094265,0.561676194977,0.827254369094,-1.0,0.0,0.0,0.0,0.0,0.0,0.0,0.0,0.0,-0.0015247778042,0.00457595444257,-0.00154811721046,-1.0,0.0,0.0,0.0,0.0,0.0,0.0,0.0,0.0,-0.192216839885,-0.223040155188,9.80474802609,-1.0,0.0,0.0,0.0,0.0,0.0,0.0,0.0,0.0
1596620937246220782,1867,1596620937245778208,xsense,-0.0126881279998,0.00299620342726,0.561681704319,0.82725068583,-1.0,0.0,0.0,0.0,0.0,0.0,0.0,0.0,0.0,-0.00306997104496,0.00148740127801,-0.000112691468181,-1.0,0.0,0.0,0.0,0.0,0.0,0.0,0.0,0.0,-0.195850727328,-0.174938999656,9.82990630785,-1.0,0.0,0.0,0.0,0.0,0.0,0.0,0.0,0.0
1596620937248013702,1868,1596620937247281500,xsense,-0.0126707226301,0.00301888408501,0.56168954478,0.827245546626,-1.0,0.0,0.0,0.0,0.0,0.0,0.0,0.0,0.0,0.00448979667326,0.00616724086297,0.000241516436561,-1.0,0.0,0.0,0.0,0.0,0.0,0.0,0.0,0.0,-0.195557717436,-0.199270348136,9.82947932362,-1.0,0.0,0.0,0.0,0.0,0.0,0.0,0.0,0.0
1596620937249684238,1869,1596620937249361036,xsense,-0.0126857472169,0.00300976609587,0.561682116537,0.827250393224,-1.0,0.0,0.0,0.0,0.0,0.0,0.0,0.0,0.0,-0.00451114003929,0.00455120910409,-0.00319883329718,-1.0,0.0,0.0,0.0,0.0,0.0,0.0,0.0,0.0,-0.17175893812,-0.198641447091,9.83148280086,-1.0,0.0,0.0,0.0,0.0,0.0,0.0,0.0,0.0
1596620937276224390,1870,1596620937275741322,xsense,-0.0126678824655,0.00300436931055,0.561689103265,0.827245942748,-1.0,0.0,0.0,0.0,0.0,0.0,0.0,0.0,0.0,0.00150355085961,0.00154678080266,7.61928632174e-05,-1.0,0.0,0.0,0.0,0.0,0.0,0.0,0.0,0.0,-0.173395838962,-0.149989512759,9.83231664567,-1.0,0.0,0.0,0.0,0.0,0.0,0.0,0.0,0.0
1596620937277819281,1871,1596620937277583639,xsense,-0.0126729035007,0.00302086910435,0.561682300216,0.827250424896,-1.0,0.0,0.0,0.0,0.0,0.0,0.0,0.0,0.0,2.04976128528e-05,0.00766456859354,-0.00298349269826,-1.0,0.0,0.0,0.0,0.0,0.0,0.0,0.0,0.0,-0.197498453765,-0.174951902639,9.8298731127,-1.0,0.0,0.0,0.0,0.0,0.0,0.0,0.0,0.0
1596620937295976192,1872,1596620937295582973,xsense,-0.0126676235877,0.00300755793475,0.561681949815,0.827250792179,-1.0,0.0,0.0,0.0,0.0,0.0,0.0,0.0,0.0,-0.0014827836168,0.00152199419044,-0.0015745784547,-1.0,0.0,0.0,0.0,0.0,0.0,0.0,0.0,0.0,-0.197945979799,-0.175028280934,9.82986274911,-1.0,0.0,0.0,0.0,0.0,0.0,0.0,0.0,0.0
1596620937297387756,1873,1596620937296980648,xsense,-0.0126597146311,0.00300514334414,0.561681580967,0.827251172463,-1.0,0.0,0.0,0.0,0.0,0.0,0.0,0.0,0.0,2.07274176884e-05,0.00306881351195,-0.00149830678139,-1.0,0.0,0.0,0.0,0.0,0.0,0.0,0.0,0.0,-0.171169649265,-0.198394875041,9.80712642534,-1.0,0.0,0.0,0.0,0.0,0.0,0.0,0.0,0.0
1596620937316382504,1874,1596620937315756103,xsense,-0.0126526830709,0.00300219486359,0.561680575061,0.827251973728,-1.0,0.0,0.0,0.0,0.0,0.0,0.0,0.0,0.0,2.07268814934e-05,0.00306881591948,-0.00149830756297,-1.0,0.0,0.0,0.0,0.0,0.0,0.0,0.0,0.0,-0.197796126703,-0.199505300074,9.82942976749,-1.0,0.0,0.0,0.0,0.0,0.0,0.0,0.0,0.0
1596620937318411508,1875,1596620937318087916,xsense,-0.0126514538257,0.00302306242059,0.561674009385,0.827256374403,-1.0,0.0,0.0,0.0,0.0,0.0,0.0,0.0,0.0,0.0015449371358,0.00768448333814,-0.00292030076233,-1.0,0.0,0.0,0.0,0.0,0.0,0.0,0.0,0.0,-0.198320213143,-0.19943272686,9.82942068223,-1.0,0.0,0.0,0.0,0.0,0.0,0.0,0.0,0.0
1596620937335559957,1876,1596620937335280343,xsense,-0.0126490809573,0.00302612232212,0.561686348631,0.827248021512,-1.0,0.0,0.0,0.0,0.0,0.0,0.0,0.0,0.0,-0.000125962379826,0.00456609288139,0.00156412562968,-1.0,0.0,0.0,0.0,0.0,0.0,0.0,0.0,0.0,-0.201602589281,-0.175437919647,9.8541572198,-1.0,0.0,0.0,0.0,0.0,0.0,0.0,0.0,0.0
1596620937336959830,1877,1596620937336510819,xsense,-0.0126641046808,0.00301700410517,0.561678917569,0.827252870468,-1.0,0.0,0.0,0.0,0.0,0.0,0.0,0.0,0.0,-0.00451088468537,0.00455102819928,-0.00319953806717,-1.0,0.0,0.0,0.0,0.0,0.0,0.0,0.0,0.0,-0.198030028775,-0.174717358418,9.80549090359,-1.0,0.0,0.0,0.0,0.0,0.0,0.0,0.0,0.0
1596620937355704996,1878,1596620937355283771,xsense,-0.0126549474506,0.00302459447731,0.561686013248,0.827248165096,-1.0,0.0,0.0,0.0,0.0,0.0,0.0,0.0,0.0,0.00146132540141,0.00460084735706,0.000102849992497,-1.0,0.0,0.0,0.0,0.0,0.0,0.0,0.0,0.0,-0.177503594304,-0.199586496285,9.85573379824,-1.0,0.0,0.0,0.0,0.0,0.0,0.0,0.0,0.0
1596620937357173550,1879,1596620937356916660,xsense,-0.0126528984711,0.00301809595715,0.56167279028,0.827257198165,-1.0,0.0,0.0,0.0,0.0,0.0,0.0,0.0,0.0,-0.00137782139327,0.00307870347754,-0.004610887129,-1.0,0.0,0.0,0.0,0.0,0.0,0.0,0.0,0.0,-0.174526913413,-0.174233716495,9.80749586905,-1.0,0.0,0.0,0.0,0.0,0.0,0.0,0.0,0.0
1596620937375978692,1880,1596620937375651253,xsense,-0.01265819862,0.00300684208578,0.561670829716,0.8272584892,-1.0,0.0,0.0,0.0,0.0,0.0,0.0,0.0,0.0,-0.00302823062731,0.00302899947728,-0.00162493109345,-1.0,0.0,0.0,0.0,0.0,0.0,0.0,0.0,0.0,-0.202493875425,-0.200446384629,9.85369220657,-1.0,0.0,0.0,0.0,0.0,0.0,0.0,0.0,0.0
1596620937378431905,1881,1596620937377355653,xsense,-0.0126546657239,0.00301068535607,0.561670419446,0.827258807828,-1.0,0.0,0.0,0.0,0.0,0.0,0.0,0.0,0.0,-3.43220967652e-07,0.00459587200366,-0.00148500749752,-1.0,0.0,0.0,0.0,0.0,0.0,0.0,0.0,0.0,-0.179219860978,-0.17556000328,9.8561297615,-1.0,0.0,0.0,0.0,0.0,0.0,0.0,0.0,0.0
1596620937396039720,1882,1596620937395563869,xsense,-0.0126521423495,0.00301375484738,0.561681670455,0.827251196222,-1.0,0.0,0.0,0.0,0.0,0.0,0.0,0.0,0.0,-0.000126369151457,0.00456604803446,0.00156427673821,-1.0,0.0,0.0,0.0,0.0,0.0,0.0,0.0,0.0,-0.19996292702,-0.175250259424,9.80544216578,-1.0,0.0,0.0,0.0,0.0,0.0,0.0,0.0,0.0
1596620937397320588,1883,1596620937397001473,xsense,-0.012656931061,0.00300246265269,0.561687133716,0.827247454594,-1.0,0.0,0.0,0.0,0.0,0.0,0.0,0.0,0.0,-0.00309120465129,0.00301409723054,-0.000100429817062,-1.0,0.0,0.0,0.0,0.0,0.0,0.0,0.0,0.0,-0.177355605857,-0.199647333528,9.83136305577,-1.0,0.0,0.0,0.0,0.0,0.0,0.0,0.0,0.0
1596620937399574096,1884,1596620937399003187,xsense,-0.0126305356514,0.00301260537682,0.561695102768,0.827242410243,-1.0,0.0,0.0,0.0,0.0,0.0,0.0,0.0,0.0,0.00453126396685,0.00311379956186,0.000216817251572,-1.0,0.0,0.0,0.0,0.0,0.0,0.0,0.0,0.0,-0.224957651286,-0.17597327313,9.80339813971,-1.0,0.0,0.0,0.0,0.0,0.0,0.0,0.0,0.0
1596620937418782380,1885,1596620937418222605,xsense,-0.0126547014384,0.00301571752994,0.561700202344,0.82723856696,-1.0,0.0,0.0,0.0,0.0,0.0,0.0,0.0,0.0,-0.00467901659605,0.00757513779291,-0.000124423925841,-1.0,0.0,0.0,0.0,0.0,0.0,0.0,0.0,0.0,-0.20048571142,-0.199744053499,9.80499351238,-1.0,0.0,0.0,0.0,0.0,0.0,0.0,0.0,0.0
1596620937420768176,1886,1596620937420367020,xsense,-0.0126388859421,0.00300066803223,0.561686798677,0.827247964486,-1.0,0.0,0.0,0.0,0.0,0.0,0.0,0.0,0.0,0.000189455272772,4.48194361067e-05,-0.00457391090768,-1.0,0.0,0.0,0.0,0.0,0.0,0.0,0.0,0.0,-0.204892271302,-0.200924068579,9.85363289784,-1.0,0.0,0.0,0.0,0.0,0.0,0.0,0.0,0.0
1596620937446277609,1887,1596620937445939778,xsense,-0.0126419965801,0.00299985797523,0.561698766319,0.827239793947,-1.0,0.0,0.0,0.0,0.0,0.0,0.0,0.0,0.0,-0.00165107509568,0.00454606436672,0.00150080069342,-1.0,0.0,0.0,0.0,0.0,0.0,0.0,0.0,0.0,-0.179450726241,-0.175482061491,9.83175574572,-1.0,0.0,0.0,0.0,0.0,0.0,0.0,0.0,0.0
1596620937448335601,1888,1596620937448090137,xsense,-0.0126387939668,0.00300300593202,0.561707307738,0.827234031744,-1.0,0.0,0.0,0.0,0.0,0.0,0.0,0.0,0.0,-6.34007942035e-05,0.00458098255341,3.97301641454e-05,-1.0,0.0,0.0,0.0,0.0,0.0,0.0,0.0,0.0,-0.179225151604,-0.199965999964,9.83132267545,-1.0,0.0,0.0,0.0,0.0,0.0,0.0,0.0,0.0
1596620937465395997,1889,1596620937465125048,xsense,-0.0126308850556,0.00300059252693,0.561706939328,0.827234411456,-1.0,0.0,0.0,0.0,0.0,0.0,0.0,0.0,0.0,2.09536063302e-05,0.00306894367579,-0.00149814812513,-1.0,0.0,0.0,0.0,0.0,0.0,0.0,0.0,0.0,-0.2066178153,-0.176684672416,9.85403106224,-1.0,0.0,0.0,0.0,0.0,0.0,0.0,0.0,0.0
1596620937466997637,1890,1596620937466705459,xsense,-0.012631983224,0.00300969240057,0.561707805798,0.827233773281,-1.0,0.0,0.0,0.0,0.0,0.0,0.0,0.0,0.0,-2.1338814529e-05,0.00612294046717,-0.001471665149,-1.0,0.0,0.0,0.0,0.0,0.0,0.0,0.0,0.0,-0.182747334178,-0.176049108427,9.85605626431,-1.0,0.0,0.0,0.0,0.0,0.0,0.0,0.0,0.0
1596620937486145888,1891,1596620937485867483,xsense,-0.0126348972694,0.00300902451641,0.561713464855,0.82722988857,-1.0,0.0,0.0,0.0,0.0,0.0,0.0,0.0,0.0,-0.00158795784492,0.0045610114767,-2.39485898014e-05,-1.0,0.0,0.0,0.0,0.0,0.0,0.0,0.0,0.0,-0.177872074764,-0.223975295332,9.80654745772,-1.0,0.0,0.0,0.0,0.0,0.0,0.0,0.0,0.0
1596620937486775382,1892,1596620937486561552,xsense,-0.0126213164086,0.00301009871798,0.561708514739,0.827233453233,-1.0,0.0,0.0,0.0,0.0,0.0,0.0,0.0,0.0,0.001608816998,0.00310391591345,-0.00295904905122,-1.0,0.0,0.0,0.0,0.0,0.0,0.0,0.0,0.0,-0.203918631689,-0.175814098023,9.8053506046,-1.0,0.0,0.0,0.0,0.0,0.0,0.0,0.0,0.0
1596620937505069073,1893,1596620937504789477,xsense,-0.0126134074422,0.00300768477881,0.5617081462,0.82723383289,-1.0,0.0,0.0,0.0,0.0,0.0,0.0,0.0,0.0,2.09857262727e-05,0.00306895677743,-0.00149815076407,-1.0,0.0,0.0,0.0,0.0,0.0,0.0,0.0,0.0,-0.207591048942,-0.201096007401,9.85357290374,-1.0,0.0,0.0,0.0,0.0,0.0,0.0,0.0,0.0
1596620937505914903,1894,1596620937505727741,xsense,-0.0126379152227,0.00301088409407,0.561700412084,0.827238698769,-1.0,0.0,0.0,0.0,0.0,0.0,0.0,0.0,0.0,-0.00455266561125,0.0076048727087,-0.00317432663685,-1.0,0.0,0.0,0.0,0.0,0.0,0.0,0.0,0.0,-0.180416205482,-0.175325428255,9.80736984587,-1.0,0.0,0.0,0.0,0.0,0.0,0.0,0.0,0.0
1596620937526085334,1895,1596620937525742576,xsense,-0.0126197747491,0.00300629391849,0.561712940862,0.827230485143,-1.0,0.0,0.0,0.0,0.0,0.0,0.0,0.0,0.0,0.00143982942062,0.00153204811118,0.00160170992446,-1.0,0.0,0.0,0.0,0.0,0.0,0.0,0.0,0.0,-0.20518311427,-0.176119913413,9.80531873753,-1.0,0.0,0.0,0.0,0.0,0.0,0.0,0.0,0.0
1596620937529882460,1896,1596620937529486892,xsense,-0.0126187560257,0.00299917619598,0.561712325503,0.827230944366,-1.0,0.0,0.0,0.0,0.0,0.0,0.0,0.0,0.0,-0.0015034494749,0.00304896158666,-0.00156192856492,-1.0,0.0,0.0,0.0,0.0,0.0,0.0,0.0,0.0,-0.206079945471,-0.225404043588,9.82879074154,-1.0,0.0,0.0,0.0,0.0,0.0,0.0,0.0,0.0
1596620937546245220,1897,1596620937545828304,xsense,-0.0126194022572,0.00300942112992,0.561705566971,0.827235486488,-1.0,0.0,0.0,0.0,0.0,0.0,0.0,0.0,0.0,4.2052300994e-05,0.0061380081983,-0.00299616534402,-1.0,0.0,0.0,0.0,0.0,0.0,0.0,0.0,0.0,-0.182884906261,-0.200438668212,9.83124565195,-1.0,0.0,0.0,0.0,0.0,0.0,0.0,0.0,0.0
1596620937547504626,1898,1596620937546924213,xsense,-0.0126227276738,0.00300843573719,0.561706906029,0.827234530094,-1.0,0.0,0.0,0.0,0.0,0.0,0.0,0.0,0.0,-0.00152469190536,0.00457595308271,-0.00154870850176,-1.0,0.0,0.0,0.0,0.0,0.0,0.0,0.0,0.0,-0.186117148512,-0.176594376372,9.85598345087,-1.0,0.0,0.0,0.0,0.0,0.0,0.0,0.0,0.0
1596620937566797959,1899,1596620937566362721,xsense,-0.0126168904884,0.00299525226036,0.561712646687,0.827230768946,-1.0,0.0,0.0,0.0,0.0,0.0,0.0,0.0,0.0,-0.0015457279716,0.00150693471979,-5.06488385325e-05,-1.0,0.0,0.0,0.0,0.0,0.0,0.0,0.0,0.0,-0.181672821224,-0.200188133027,9.80690103914,-1.0,0.0,0.0,0.0,0.0,0.0,0.0,0.0,0.0
1596620937568654734,1900,1596620937568022777,xsense,-0.0126119006692,0.00300905119097,0.561720241666,0.827225637704,-1.0,0.0,0.0,0.0,0.0,0.0,0.0,0.0,0.0,0.00143944846965,0.00612810348053,0.000117107310904,-1.0,0.0,0.0,0.0,0.0,0.0,0.0,0.0,0.0,-0.184079791754,-0.200673272004,9.83121856578,-1.0,0.0,0.0,0.0,0.0,0.0,0.0,0.0,0.0
1596620937587228139,1901,1596620937586364996,xsense,-0.0126123486467,0.00301944122709,0.561707175396,0.827234465399,-1.0,0.0,0.0,0.0,0.0,0.0,0.0,0.0,0.0,0.000105787479771,0.00615306977031,-0.004520740804,-1.0,0.0,0.0,0.0,0.0,0.0,0.0,0.0,0.0,-0.184679069096,-0.200601376304,9.83120879378,-1.0,0.0,0.0,0.0,0.0,0.0,0.0,0.0,0.0
1596620937588738011,1902,1596620937588208437,xsense,-0.0126175716853,0.00300746223199,0.561720401499,0.827225448469,-1.0,0.0,0.0,0.0,0.0,0.0,0.0,0.0,0.0,-0.00315516839296,0.00299879923753,0.00142310363594,-1.0,0.0,0.0,0.0,0.0,0.0,0.0,0.0,0.0,-0.185125831961,-0.200754134045,9.83119727232,-1.0,0.0,0.0,0.0,0.0,0.0,0.0,0.0,0.0
1596620937606313639,1903,1596620937605793060,xsense,-0.0126182175103,0.00301770791645,0.561713643556,0.827229990189,-1.0,0.0,0.0,0.0,0.0,0.0,0.0,0.0,0.0,4.2222893539e-05,0.006138119301,-0.00299603017344,-1.0,0.0,0.0,0.0,0.0,0.0,0.0,0.0,0.0,-0.209892862162,-0.201551316487,9.82913715959,-1.0,0.0,0.0,0.0,0.0,0.0,0.0,0.0,0.0
1596620937607980119,1904,1596620937607496729,xsense,-0.012610479509,0.00301452477555,0.561715823623,0.827228639457,-1.0,0.0,0.0,0.0,0.0,0.0,0.0,0.0,0.0,2.11106337189e-05,0.00306906331778,-0.00149801627501,-1.0,0.0,0.0,0.0,0.0,0.0,0.0,0.0,0.0,-0.162383327111,-0.175865571454,9.83365196489,-1.0,0.0,0.0,0.0,0.0,0.0,0.0,0.0,0.0
1596620937626607494,1905,1596620937625960149,xsense,-0.0126113236531,0.00302462527185,0.561715373638,0.827228895274,-1.0,0.0,0.0,0.0,0.0,0.0,0.0,0.0,0.0,-2.15228930693e-05,0.00612309635318,-0.00147142081587,-1.0,0.0,0.0,0.0,0.0,0.0,0.0,0.0,0.0,-0.208751148302,-0.201075361401,9.80479380754,-1.0,0.0,0.0,0.0,0.0,0.0,0.0,0.0,0.0
1596620937628200034,1906,1596620937627679606,xsense,-0.0126147647168,0.00302297024076,0.561722177851,0.827224228533,-1.0,0.0,0.0,0.0,0.0,0.0,0.0,0.0,0.0,-0.00158844701651,0.00456091043016,-2.42829236718e-05,-1.0,0.0,0.0,0.0,0.0,0.0,0.0,0.0,0.0,-0.211994975891,-0.17723593814,9.82953024024,-1.0,0.0,0.0,0.0,0.0,0.0,0.0,0.0,0.0
1596620937631108680,1907,1596620937630785158,xsense,-0.0126089618174,0.00303773023747,0.56170935336,0.82723297119,-1.0,0.0,0.0,0.0,0.0,0.0,0.0,0.0,0.0,0.00163061451639,0.00617336277864,-0.0044563893508,-1.0,0.0,0.0,0.0,0.0,0.0,0.0,0.0,0.0,-0.185476119416,-0.200514157134,9.80682318612,-1.0,0.0,0.0,0.0,0.0,0.0,0.0,0.0,0.0
1596620937647275216,1908,1596620937646857693,xsense,-0.0125976588962,0.0030282120631,0.561722236984,0.827224429886,-1.0,0.0,0.0,0.0,0.0,0.0,0.0,0.0,0.0,-8.52343543418e-05,0.00151197848049,0.00153790387495,-1.0,0.0,0.0,0.0,0.0,0.0,0.0,0.0,0.0,-0.212210932554,-0.201566586208,9.82908707116,-1.0,0.0,0.0,0.0,0.0,0.0,0.0,0.0,0.0
1596620937648804129,1909,1596620937648412815,xsense,-0.0125981055132,0.00303860340756,0.561709171188,0.827233257087,-1.0,0.0,0.0,0.0,0.0,0.0,0.0,0.0,0.0,0.000106235284525,0.00615320381751,-0.00452064651819,-1.0,0.0,0.0,0.0,0.0,0.0,0.0,0.0,0.0,-0.188948932315,-0.176522864186,9.83155916173,-1.0,0.0,0.0,0.0,0.0,0.0,0.0,0.0,0.0
1596620937676521062,1910,1596620937675872255,xsense,-0.0126038499949,0.00302623410249,0.561721518103,0.827224830969,-1.0,0.0,0.0,0.0,0.0,0.0,0.0,0.0,0.0,-0.00315561447098,0.00299860966858,0.00142256292665,-1.0,0.0,0.0,0.0,0.0,0.0,0.0,0.0,0.0,-0.19144006966,-0.177156927903,9.85587140084,-1.0,0.0,0.0,0.0,0.0,0.0,0.0,0.0,0.0
1596620937678910683,1911,1596620937678496685,xsense,-0.0126169948807,0.00302774160227,0.561714277,0.827229542047,-1.0,0.0,0.0,0.0,0.0,0.0,0.0,0.0,0.0,-0.00300651671992,0.00609785746578,-0.00312462348153,-1.0,0.0,0.0,0.0,0.0,0.0,0.0,0.0,0.0,-0.187796645608,-0.176498223997,9.80721025968,-1.0,0.0,0.0,0.0,0.0,0.0,0.0,0.0,0.0
1596620937696033897,1912,1596620937695573298,xsense,-0.0126244506252,0.00303235196097,0.561708761696,0.827233156445,-1.0,0.0,0.0,0.0,0.0,0.0,0.0,0.0,0.0,-0.00148206674659,0.00611807334958,-0.0030602416625,-1.0,0.0,0.0,0.0,0.0,0.0,0.0,0.0,0.0,-0.189752214577,-0.201607488546,9.83109160455,-1.0,0.0,0.0,0.0,0.0,0.0,0.0,0.0,0.0
1596620937697682323,1913,1596620937697380722,xsense,-0.0126167409184,0.00302979179709,0.56171470204,0.827229249798,-1.0,0.0,0.0,0.0,0.0,0.0,0.0,0.0,0.0,-4.28526434906e-05,0.00305405019893,2.66962231859e-05,-1.0,0.0,0.0,0.0,0.0,0.0,0.0,0.0,0.0,-0.212470741175,-0.201849105096,9.80469800922,-1.0,0.0,0.0,0.0,0.0,0.0,0.0,0.0,0.0
1596620937715372385,1914,1596620937714940595,xsense,-0.0126197426349,0.00302825170105,0.561715329319,0.827228783708,-1.0,0.0,0.0,0.0,0.0,0.0,0.0,0.0,0.0,-0.00152466227005,0.00457595645925,-0.00154901370319,-1.0,0.0,0.0,0.0,0.0,0.0,0.0,0.0,0.0,-0.190573536117,-0.201763828963,9.83107250971,-1.0,0.0,0.0,0.0,0.0,0.0,0.0,0.0,0.0
1596620937717019794,1915,1596620937716488866,xsense,-0.0125991348136,0.00303472248252,0.561709138612,0.827233277777,-1.0,0.0,0.0,0.0,0.0,0.0,0.0,0.0,0.0,0.00313422014898,0.00312476526411,-0.00289350133792,-1.0,0.0,0.0,0.0,0.0,0.0,0.0,0.0,0.0,-0.191633286149,-0.177288247312,9.83149343273,-1.0,0.0,0.0,0.0,0.0,0.0,0.0,0.0,0.0
1596620937736510887,1916,1596620937735992918,xsense,-0.0126191332113,0.00303107411272,0.561702160877,0.827237724317,-1.0,0.0,0.0,0.0,0.0,0.0,0.0,0.0,0.0,-0.00453093603403,0.00607752149901,-0.00318940653478,-1.0,0.0,0.0,0.0,0.0,0.0,0.0,0.0,0.0,-0.191393795013,-0.20176341783,9.83105658475,-1.0,0.0,0.0,0.0,0.0,0.0,0.0,0.0,0.0
1596620937738663528,1917,1596620937738111994,xsense,-0.0126007972588,0.0030266257615,0.561708384726,0.827233794023,-1.0,0.0,0.0,0.0,0.0,0.0,0.0,0.0,0.0,0.00150295755888,0.00154731271544,7.79284464061e-05,-1.0,0.0,0.0,0.0,0.0,0.0,0.0,0.0,0.0,-0.190400768918,-0.177031063933,9.80715044227,-1.0,0.0,0.0,0.0,0.0,0.0,0.0,0.0,0.0
1596620937756423334,1918,1596620937755851026,xsense,-0.0126037223074,0.00302607964114,0.561702070021,0.827238039237,-1.0,0.0,0.0,0.0,0.0,0.0,0.0,0.0,0.0,-0.00146053788628,0.00459104796813,-0.00307370090637,-1.0,0.0,0.0,0.0,0.0,0.0,0.0,0.0,0.0,-0.19206416314,-0.201916029053,9.83104037632,-1.0,0.0,0.0,0.0,0.0,0.0,0.0,0.0,0.0
1596620937757819318,1919,1596620937757434480,xsense,-0.0126066401068,0.00302540541548,0.561707726981,0.827234156087,-1.0,0.0,0.0,0.0,0.0,0.0,0.0,0.0,0.0,-0.00158897349026,0.00456078837986,-2.45116885171e-05,-1.0,0.0,0.0,0.0,0.0,0.0,0.0,0.0,0.0,-0.19388616397,-0.15326763951,9.83188337974,-1.0,0.0,0.0,0.0,0.0,0.0,0.0,0.0,0.0
1596620937776522912,1920,1596620937775975474,xsense,-0.0125973159916,0.00303270546687,0.561715261949,0.827229154963,-1.0,0.0,0.0,0.0,0.0,0.0,0.0,0.0,0.0,0.0014599066509,0.00460140379718,0.000104772975664,-1.0,0.0,0.0,0.0,0.0,0.0,0.0,0.0,0.0,-0.217279086967,-0.202724273691,9.82895253347,-1.0,0.0,0.0,0.0,0.0,0.0,0.0,0.0,0.0
1596620937778486353,1921,1596620937777842382,xsense,-0.0125958560692,0.00302577450227,0.561720959164,0.827225333953,-1.0,0.0,0.0,0.0,0.0,0.0,0.0,0.0,0.0,-0.00156746125224,0.0030337630604,-3.79487772697e-05,-1.0,0.0,0.0,0.0,0.0,0.0,0.0,0.0,0.0,-0.194712024372,-0.153279128775,9.83186687937,-1.0,0.0,0.0,0.0,0.0,0.0,0.0,0.0,0.0
1596620937779276092,1922,1596620937778715646,xsense,-0.0125992661646,0.0030246789388,0.561720148082,0.827225836787,-1.0,0.0,0.0,0.0,0.0,0.0,0.0,0.0,0.0,-0.00152466369094,0.00457594717828,-0.00154916549827,-1.0,0.0,0.0,0.0,0.0,0.0,0.0,0.0,0.0,-0.167335236552,-0.20110030919,9.80874795042,-1.0,0.0,0.0,0.0,0.0,0.0,0.0,0.0,0.0
1596620937797954667,1923,1596620937797287740,xsense,-0.0126040556487,0.00301337814571,0.561725601747,0.827222101781,-1.0,0.0,0.0,0.0,0.0,0.0,0.0,0.0,0.0,-0.00309192198159,0.00301344235367,-0.000102700206778,-1.0,0.0,0.0,0.0,0.0,0.0,0.0,0.0,0.0,-0.194768636032,-0.178061848446,9.83141783839,-1.0,0.0,0.0,0.0,0.0,0.0,0.0,0.0,0.0
1596620937799593848,1924,1596620937799410063,xsense,-0.0125778362525,0.00302353764166,0.561721509433,0.827225242661,-1.0,0.0,0.0,0.0,0.0,0.0,0.0,0.0,0.0,0.00465899141805,0.0031453838759,-0.00282807930758,-1.0,0.0,0.0,0.0,0.0,0.0,0.0,0.0,0.0,-0.168004887014,-0.201253712631,9.80873335747,-1.0,0.0,0.0,0.0,0.0,0.0,0.0,0.0,0.0
1596620937828010645,1925,1596620937827401763,xsense,-0.0125928512835,0.00301441810444,0.561714062733,0.827230104087,-1.0,0.0,0.0,0.0,0.0,0.0,0.0,0.0,0.0,-0.00450916342867,0.00455039782698,-0.00320340789501,-1.0,0.0,0.0,0.0,0.0,0.0,0.0,0.0,0.0,-0.198870382242,-0.203356423417,9.8796223223,-1.0,0.0,0.0,0.0,0.0,0.0,0.0,0.0,0.0
1596620937829191931,1926,1596620937828799300,xsense,-0.012583703357,0.00302214326001,0.561720287815,0.827225988057,-1.0,0.0,0.0,0.0,0.0,0.0,0.0,0.0,0.0,0.00145971480876,0.00460147773885,0.000105038792641,-1.0,0.0,0.0,0.0,0.0,0.0,0.0,0.0,0.0,-0.195199232378,-0.202539688495,9.83096579899,-1.0,0.0,0.0,0.0,0.0,0.0,0.0,0.0,0.0
1596620937845361444,1927,1596620937845186742,xsense,-0.0125818420881,0.0030155071909,0.561713368778,0.827230738852,-1.0,0.0,0.0,0.0,0.0,0.0,0.0,0.0,0.0,-0.00143865506413,0.00306406854407,-0.00308723602348,-1.0,0.0,0.0,0.0,0.0,0.0,0.0,0.0,0.0,-0.171945863174,-0.177489796042,9.83346022541,-1.0,0.0,0.0,0.0,0.0,0.0,0.0,0.0,0.0
1596620937845616948,1928,1596620937845523895,xsense,-0.0125699261207,0.0030063234444,0.561719627271,0.827226703701,-1.0,0.0,0.0,0.0,0.0,0.0,0.0,0.0,0.0,-2.15963500737e-05,0.00152704071207,1.34050673271e-05,-1.0,0.0,0.0,0.0,0.0,0.0,0.0,0.0,0.0,-0.220112644767,-0.203267933398,9.82887825705,-1.0,0.0,0.0,0.0,0.0,0.0,0.0,0.0,0.0
1596620937865978612,1929,1596620937865836792,xsense,-0.0125601457032,0.00301453545094,0.561719464048,0.827226933208,-1.0,0.0,0.0,0.0,0.0,0.0,0.0,0.0,0.0,0.00152413479253,0.00461669517708,-0.00141948149631,-1.0,0.0,0.0,0.0,0.0,0.0,0.0,0.0,0.0,-0.173160240293,-0.153091037027,9.8338793329,-1.0,0.0,0.0,0.0,0.0,0.0,0.0,0.0,0.0
1596620937866373104,1930,1596620937866211833,xsense,-0.0125637807678,0.00301302434322,0.56172486269,0.827223217598,-1.0,0.0,0.0,0.0,0.0,0.0,0.0,0.0,0.0,-0.00158925190321,0.00456073488989,-2.47474178098e-05,-1.0,0.0,0.0,0.0,0.0,0.0,0.0,0.0,0.0,-0.197918420624,-0.227434342235,9.85483237074,-1.0,0.0,0.0,0.0,0.0,0.0,0.0,0.0,0.0
1596620937885342788,1931,1596620937885216593,xsense,-0.0125581771174,0.00302764089248,0.561718351693,0.827227670565,-1.0,0.0,0.0,0.0,0.0,0.0,0.0,0.0,0.0,0.00156712014254,0.0061589503809,-0.0029305920007,-1.0,0.0,0.0,0.0,0.0,0.0,0.0,0.0,0.0,-0.197760853021,-0.178151969114,9.83135647275,-1.0,0.0,0.0,0.0,0.0,0.0,0.0,0.0,0.0
1596620937885999288,1932,1596620937885805279,xsense,-0.0125467596132,0.00301808765802,0.561730608526,0.82721955575,-1.0,0.0,0.0,0.0,0.0,0.0,0.0,0.0,0.0,-8.62434250188e-05,0.0015118679718,0.00153797016308,-1.0,0.0,0.0,0.0,0.0,0.0,0.0,0.0,0.0,-0.173128670218,-0.201828585043,9.83300034259,-1.0,0.0,0.0,0.0,0.0,0.0,0.0,0.0,0.0
1596620937905590124,1933,1596620937905384724,xsense,-0.0125384466651,0.00301597075633,0.561717625498,0.827228505602,-1.0,0.0,0.0,0.0,0.0,0.0,0.0,0.0,0.0,0.000150627912381,0.0030996288125,-0.00454695810887,-1.0,0.0,0.0,0.0,0.0,0.0,0.0,0.0,0.0,-0.195602846099,-0.201995667994,9.80659602382,-1.0,0.0,0.0,0.0,0.0,0.0,0.0,0.0,0.0
1596620937906285578,1934,1596620937906042247,xsense,-0.0125437170728,0.00300469080233,0.561717153853,0.827228787012,-1.0,0.0,0.0,0.0,0.0,0.0,0.0,0.0,0.0,-0.00302750973016,0.00302839470781,-0.00162788321743,-1.0,0.0,0.0,0.0,0.0,0.0,0.0,0.0,0.0,-0.200030850172,-0.203114020674,9.85523025336,-1.0,0.0,0.0,0.0,0.0,0.0,0.0,0.0,0.0
1596620937926335824,1935,1596620937925717164,xsense,-0.0125447662772,0.00301463986345,0.561723014392,0.827224755364,-1.0,0.0,0.0,0.0,0.0,0.0,0.0,0.0,0.0,-8.66744376857e-05,0.00610819326477,5.36436971704e-05,-1.0,0.0,0.0,0.0,0.0,0.0,0.0,0.0,0.0,-0.172719700815,-0.177242813181,9.80908434186,-1.0,0.0,0.0,0.0,0.0,0.0,0.0,0.0,0.0
1596620937928357018,1936,1596620937927889935,xsense,-0.0125496091019,0.00300296094779,0.561723626581,0.827224308684,-1.0,0.0,0.0,0.0,0.0,0.0,0.0,0.0,0.0,-0.00302746106065,0.00302840466714,-0.00162797710706,-1.0,0.0,0.0,0.0,0.0,0.0,0.0,0.0,0.0,-0.199551867186,-0.178537213707,9.83131329335,-1.0,0.0,0.0,0.0,0.0,0.0,0.0,0.0,0.0
1596620937929480640,1937,1596620937929133974,xsense,-0.0125567051112,0.00300868878186,0.561722934454,0.827224650175,-1.0,0.0,0.0,0.0,0.0,0.0,0.0,0.0,0.0,-0.00154640762507,0.00610297188932,-0.00153597858097,-1.0,0.0,0.0,0.0,0.0,0.0,0.0,0.0,0.0,-0.201374818616,-0.203652647317,9.8551917684,-1.0,0.0,0.0,0.0,0.0,0.0,0.0,0.0,0.0
1596620937947959736,1938,1596620937947523938,xsense,-0.0125497820401,0.00300575275326,0.561728083914,0.827221269168,-1.0,0.0,0.0,0.0,0.0,0.0,0.0,0.0,0.0,-4.33887342811e-05,0.00305410427852,2.6886811081e-05,-1.0,0.0,0.0,0.0,0.0,0.0,0.0,0.0,0.0,-0.19837537772,-0.178357656425,9.80696833927,-1.0,0.0,0.0,0.0,0.0,0.0,0.0,0.0,0.0
1596620937950837682,1939,1596620937950382815,xsense,-0.0125633291641,0.00300696095557,0.56173345385,0.827217412638,-1.0,0.0,0.0,0.0,0.0,0.0,0.0,0.0,0.0,-0.00313560950394,0.00606727321583,-7.66380154515e-05,-1.0,0.0,0.0,0.0,0.0,0.0,0.0,0.0,0.0,-0.200201499134,-0.203401606326,9.83084740863,-1.0,0.0,0.0,0.0,0.0,0.0,0.0,0.0,0.0
1596620937975622922,1940,1596620937975205189,xsense,-0.0125500201883,0.00300887476041,0.56174020837,0.827213020912,-1.0,0.0,0.0,0.0,0.0,0.0,0.0,0.0,0.0,0.00148102138835,0.00307457977959,9.21829389315e-05,-1.0,0.0,0.0,0.0,0.0,0.0,0.0,0.0,0.0,-0.17426138435,-0.202340772704,9.80860183426,-1.0,0.0,0.0,0.0,0.0,0.0,0.0,0.0,0.0
1596620937978262468,1941,1596620937978067816,xsense,-0.0125504626651,0.00301927279032,0.561727146395,0.827221846231,-1.0,0.0,0.0,0.0,0.0,0.0,0.0,0.0,0.0,0.000107848986401,0.00615399057938,-0.00451989278146,-1.0,0.0,0.0,0.0,0.0,0.0,0.0,0.0,0.0,-0.201099994956,-0.203409268794,9.83082891108,-1.0,0.0,0.0,0.0,0.0,0.0,0.0,0.0,0.0
1596620937996113699,1942,1596620937995515626,xsense,-0.0125559213821,0.00300662271576,0.561740688557,0.827212613466,-1.0,0.0,0.0,0.0,0.0,0.0,0.0,0.0,0.0,-0.00315720616667,0.00299785108354,0.00142082694981,-1.0,0.0,0.0,0.0,0.0,0.0,0.0,0.0,0.0,-0.17792544423,-0.178506640141,9.83333544298,-1.0,0.0,0.0,0.0,0.0,0.0,0.0,0.0,0.0
1596620937997594156,1943,1596620937997093086,xsense,-0.0125586389585,0.00300609472949,0.561740036071,0.827213017219,-1.0,0.0,0.0,0.0,0.0,0.0,0.0,0.0,0.0,-0.0015246246703,0.00457596434833,-0.00154948619888,-1.0,0.0,0.0,0.0,0.0,0.0,0.0,0.0,0.0,-0.178297707844,-0.178736945572,9.83332451684,-1.0,0.0,0.0,0.0,0.0,0.0,0.0,0.0,0.0
1596620938015990793,1944,1596620938015521480,xsense,-0.0125513312034,0.00300334010556,0.561740751127,0.82721265256,-1.0,0.0,0.0,0.0,0.0,0.0,0.0,0.0,0.0,2.15152362648e-05,0.00306941159152,-0.00149759310094,-1.0,0.0,0.0,0.0,0.0,0.0,0.0,0.0,0.0,-0.180748471417,-0.179302408652,9.85763693983,-1.0,0.0,0.0,0.0,0.0,0.0,0.0,0.0,0.0
1596620938017556360,1945,1596620938017036852,xsense,-0.0125521792844,0.00301343844691,0.561740305094,0.827212905857,-1.0,0.0,0.0,0.0,0.0,0.0,0.0,0.0,0.0,-2.19757769466e-05,0.00612353712798,-0.00147062472891,-1.0,0.0,0.0,0.0,0.0,0.0,0.0,0.0,0.0,-0.200661684133,-0.203383656241,9.80646512751,-1.0,0.0,0.0,0.0,0.0,0.0,0.0,0.0,0.0
1596620938036367678,1946,1596620938035927830,xsense,-0.0125470394419,0.00300077414004,0.561740155351,0.827213131558,-1.0,0.0,0.0,0.0,0.0,0.0,0.0,0.0,0.0,-0.00148111036643,0.00152183148253,-0.00157652849429,-1.0,0.0,0.0,0.0,0.0,0.0,0.0,0.0,0.0,-0.22604451816,-0.179716363467,9.80479473438,-1.0,0.0,0.0,0.0,0.0,0.0,0.0,0.0,0.0
1596620938038268216,1947,1596620938037879581,xsense,-0.0125543395608,0.00300635184281,0.561745770512,0.8272091874,-1.0,0.0,0.0,0.0,0.0,0.0,0.0,0.0,0.0,-0.00161148175678,0.00608771649873,-1.14839998693e-05,-1.0,0.0,0.0,0.0,0.0,0.0,0.0,0.0,0.0,-0.177089658842,-0.202957204912,9.80853844411,-1.0,0.0,0.0,0.0,0.0,0.0,0.0,0.0,0.0
1596620938057579795,1948,1596620938056176064,xsense,-0.0125510012278,0.00300996366514,0.561733353993,0.827217656666,-1.0,0.0,0.0,0.0,0.0,0.0,0.0,0.0,0.0,0.000130015469121,0.00462715200724,-0.00453316156349,-1.0,0.0,0.0,0.0,0.0,0.0,0.0,0.0,0.0,-0.204704006298,-0.179780273676,9.83118471402,-1.0,0.0,0.0,0.0,0.0,0.0,0.0,0.0,0.0
1596620938058367934,1949,1596620938057898738,xsense,-0.0125522570199,0.00301976093465,0.561745523452,0.827209337937,-1.0,0.0,0.0,0.0,0.0,0.0,0.0,0.0,0.0,-0.000152366237612,0.00609294370044,0.0015785725759,-1.0,0.0,0.0,0.0,0.0,0.0,0.0,0.0,0.0,-0.178133273035,-0.203037613264,9.80851788227,-1.0,0.0,0.0,0.0,0.0,0.0,0.0,0.0,0.0
1596620938076136313,1950,1596620938075567304,xsense,-0.0125454259933,0.00301708306083,0.561745499575,0.82720946755,-1.0,0.0,0.0,0.0,0.0,0.0,0.0,0.0,0.0,2.16015318418e-05,0.00306945621669,-0.00149754896267,-1.0,0.0,0.0,0.0,0.0,0.0,0.0,0.0,0.0,-0.203594517314,-0.179300988433,9.80684417534,-1.0,0.0,0.0,0.0,0.0,0.0,0.0,0.0,0.0
1596620938078894959,1951,1596620938078354751,xsense,-0.012533137765,0.00300841506,0.561745172573,0.827209907452,-1.0,0.0,0.0,0.0,0.0,0.0,0.0,0.0,0.0,4.34072358441e-05,0.00154238997637,-0.00151105247989,-1.0,0.0,0.0,0.0,0.0,0.0,0.0,0.0,0.0,-0.157272977856,-0.178475249659,9.83535471426,-1.0,0.0,0.0,0.0,0.0,0.0,0.0,0.0,0.0
1596620938096244377,1952,1596620938095747603,xsense,-0.0125382101082,0.00299554708711,0.561753275925,0.827204374367,-1.0,0.0,0.0,0.0,0.0,0.0,0.0,0.0,0.0,-0.00309242885337,0.00301297742717,-0.000104247781254,-1.0,0.0,0.0,0.0,0.0,0.0,0.0,0.0,0.0,-0.207513130954,-0.204832624275,9.85503997404,-1.0,0.0,0.0,0.0,0.0,0.0,0.0,0.0,0.0
1596620938098043758,1953,1596620938097503425,xsense,-0.0125305047861,0.00299298311203,0.561759217174,0.82720046568,-1.0,0.0,0.0,0.0,0.0,0.0,0.0,0.0,0.0,-4.36383453681e-05,0.00305413922679,2.70501684666e-05,-1.0,0.0,0.0,0.0,0.0,0.0,0.0,0.0,0.0,-0.206423393745,-0.180096419272,9.83114297583,-1.0,0.0,0.0,0.0,0.0,0.0,0.0,0.0,0.0
1596620938098798615,1954,1596620938098443245,xsense,-0.0125385472337,0.00299840826953,0.561758265671,0.82720097034,-1.0,0.0,0.0,0.0,0.0,0.0,0.0,0.0,0.0,-0.00154640150304,0.00610305186891,-0.00153612722756,-1.0,0.0,0.0,0.0,0.0,0.0,0.0,0.0,0.0,-0.181859814256,-0.203918392558,9.83279962058,-1.0,0.0,0.0,0.0,0.0,0.0,0.0,0.0,0.0
1596620938126728529,1955,1596620938126215341,xsense,-0.0125285358125,0.00297881092735,0.561770345452,0.827192989239,-1.0,0.0,0.0,0.0,0.0,0.0,0.0,0.0,0.0,-0.0015897101464,-3.59482445859e-05,0.00145883101664,-1.0,0.0,0.0,0.0,0.0,0.0,0.0,0.0,0.0,-0.184245954416,-0.20456378491,9.85711055676,-1.0,0.0,0.0,0.0,0.0,0.0,0.0,0.0,0.0
1596620938129365285,1956,1596620938128848657,xsense,-0.0125254781071,0.00298225237264,0.561757187582,0.827201958876,-1.0,0.0,0.0,0.0,0.0,0.0,0.0,0.0,0.0,0.000130489181469,0.00462733023697,-0.00453301026036,-1.0,0.0,0.0,0.0,0.0,0.0,0.0,0.0,0.0,-0.18029212458,-0.203655840014,9.80846561993,-1.0,0.0,0.0,0.0,0.0,0.0,0.0,0.0,0.0
1596620938146425321,1957,1596620938146135317,xsense,-0.0125179780468,0.0029795363496,0.561769436369,0.827193763849,-1.0,0.0,0.0,0.0,0.0,0.0,0.0,0.0,0.0,-0.000109064285978,0.00303877508988,0.00155164020301,-1.0,0.0,0.0,0.0,0.0,0.0,0.0,0.0,0.0,-0.207767387155,-0.180407329709,9.83110896376,-1.0,0.0,0.0,0.0,0.0,0.0,0.0,0.0,0.0
1596620938147830148,1958,1596620938147180360,xsense,-0.0125089254519,0.00298765179526,0.56176231076,0.827198710667,-1.0,0.0,0.0,0.0,0.0,0.0,0.0,0.0,0.0,0.00158960639367,0.00463256987045,-0.00294268246533,-1.0,0.0,0.0,0.0,0.0,0.0,0.0,0.0,0.0,-0.207444571628,-0.204736226463,9.83066953132,-1.0,0.0,0.0,0.0,0.0,0.0,0.0,0.0,0.0
1596620938166515301,1959,1596620938166116638,xsense,-0.0125087237885,0.0029705454357,0.561748872251,0.827207901445,-1.0,0.0,0.0,0.0,0.0,0.0,0.0,0.0,0.0,-0.00287441362034,0.00153191606535,-0.00469173634848,-1.0,0.0,0.0,0.0,0.0,0.0,0.0,0.0,0.0,-0.184125073068,-0.179747307686,9.83319871023,-1.0,0.0,0.0,0.0,0.0,0.0,0.0,0.0,0.0
1596620938167854686,1960,1596620938167397910,xsense,-0.0125077325029,0.00296319227949,0.561741846981,0.827212713557,-1.0,0.0,0.0,0.0,0.0,0.0,0.0,0.0,0.0,-0.00143735262188,0.00306426811347,-0.00308781163743,-1.0,0.0,0.0,0.0,0.0,0.0,0.0,0.0,0.0,-0.20656665152,-0.180135113461,9.8067667359,-1.0,0.0,0.0,0.0,0.0,0.0,0.0,0.0,0.0
1596620938186548982,1961,1596620938186074022,xsense,-0.012515036372,0.00296876660822,0.561747461869,0.827208770126,-1.0,0.0,0.0,0.0,0.0,0.0,0.0,0.0,0.0,-0.0016120978789,0.00608762694279,-1.15922317466e-05,-1.0,0.0,0.0,0.0,0.0,0.0,0.0,0.0,0.0,-0.184791223964,-0.180119252292,9.83317940921,-1.0,0.0,0.0,0.0,0.0,0.0,0.0,0.0,0.0
1596620938188116518,1962,1596620938187497680,xsense,-0.0125192172886,0.00296798647103,0.561746150754,0.827209600022,-1.0,0.0,0.0,0.0,0.0,0.0,0.0,0.0,0.0,-0.00152468017535,0.0045759682256,-0.00154971414969,-1.0,0.0,0.0,0.0,0.0,0.0,0.0,0.0,0.0,-0.185314101915,-0.18027492018,9.83316671569,-1.0,0.0,0.0,0.0,0.0,0.0,0.0,0.0,0.0
1596620938206731101,1963,1596620938206251334,xsense,-0.0125094415593,0.00297620045185,0.561745994596,0.827209824445,-1.0,0.0,0.0,0.0,0.0,0.0,0.0,0.0,0.0,0.00152408381121,0.00461735405683,-0.00141785406522,-1.0,0.0,0.0,0.0,0.0,0.0,0.0,0.0,0.0,-0.185061875862,-0.204677822225,9.83272409659,-1.0,0.0,0.0,0.0,0.0,0.0,0.0,0.0,0.0
1596620938208539316,1964,1596620938208017001,xsense,-0.0125207079763,0.00296004716794,0.561739083097,0.827214405407,-1.0,0.0,0.0,0.0,0.0,0.0,0.0,0.0,0.0,-0.00448592820418,0.00302288679245,-0.00321983456385,-1.0,0.0,0.0,0.0,0.0,0.0,0.0,0.0,0.0,-0.185432751822,-0.204827733891,9.83271398788,-1.0,0.0,0.0,0.0,0.0,0.0,0.0,0.0,0.0
1596620938226529031,1965,1596620938225792597,xsense,-0.0125219707733,0.00296983950542,0.561751254526,0.827206085773,-1.0,0.0,0.0,0.0,0.0,0.0,0.0,0.0,0.0,-0.000153494240208,0.00609287688031,0.0015789675837,-1.0,0.0,0.0,0.0,0.0,0.0,0.0,0.0,0.0,-0.208095774376,-0.205225717026,9.80627181319,-1.0,0.0,0.0,0.0,0.0,0.0,0.0,0.0,0.0
1596620938228205375,1966,1596620938227739676,xsense,-0.012504361985,0.00296463499947,0.561756885961,0.827202546506,-1.0,0.0,0.0,0.0,0.0,0.0,0.0,0.0,0.0,0.00150241143811,0.00154779478918,7.96430886221e-05,-1.0,0.0,0.0,0.0,0.0,0.0,0.0,0.0,0.0,-0.186958740599,-0.180589394678,9.83312981237,-1.0,0.0,0.0,0.0,0.0,0.0,0.0,0.0,0.0
1596620938246856842,1967,1596620938246374440,xsense,-0.0125048030403,0.00297503854038,0.561743827326,0.827211370514,-1.0,0.0,0.0,0.0,0.0,0.0,0.0,0.0,0.0,0.000109058277961,0.00615465657755,-0.00451923482745,-1.0,0.0,0.0,0.0,0.0,0.0,0.0,0.0,0.0,-0.209547940121,-0.180683391576,9.80669340024,-1.0,0.0,0.0,0.0,0.0,0.0,0.0,0.0,0.0
1596620938248381293,1968,1596620938248048824,xsense,-0.0125014706576,0.00297813012219,0.561745976824,0.827209950069,-1.0,0.0,0.0,0.0,0.0,0.0,0.0,0.0,0.0,-3.17270091133e-07,0.00459669848214,-0.00148375807084,-1.0,0.0,0.0,0.0,0.0,0.0,0.0,0.0,0.0,-0.160739459163,-0.203757718624,9.81047434846,-1.0,0.0,0.0,0.0,0.0,0.0,0.0,0.0,0.0
1596620938251652816,1969,1596620938251315011,xsense,-0.01249356291,0.00297571713689,0.561745610933,0.827210326695,-1.0,0.0,0.0,0.0,0.0,0.0,0.0,0.0,0.0,2.1695278115e-05,0.0030696159155,-0.00149735132649,-1.0,0.0,0.0,0.0,0.0,0.0,0.0,0.0,0.0,-0.186129618196,-0.180022732525,9.80878842131,-1.0,0.0,0.0,0.0,0.0,0.0,0.0,0.0,0.0
1596620938268104413,1970,1596620938267472204,xsense,-0.0124907919213,0.00297880925243,0.561753613907,0.827204922661,-1.0,0.0,0.0,0.0,0.0,0.0,0.0,0.0,0.0,-6.60762356024e-05,0.00458126386077,4.07728545889e-05,-1.0,0.0,0.0,0.0,0.0,0.0,0.0,0.0,0.0,-0.188605680833,-0.180519909304,9.83309963743,-1.0,0.0,0.0,0.0,0.0,0.0,0.0,0.0,0.0
1596620938270679687,1971,1596620938270370468,xsense,-0.0124870582112,0.00298280483932,0.561746901655,0.827209522874,-1.0,0.0,0.0,0.0,0.0,0.0,0.0,0.0,0.0,6.54833729449e-05,0.00461215596575,-0.00300829418458,-1.0,0.0,0.0,0.0,0.0,0.0,0.0,0.0,0.0,-0.21126484005,-0.180693313611,9.80665637995,-1.0,0.0,0.0,0.0,0.0,0.0,0.0,0.0,0.0
1596620938295810536,1972,1596620938295266498,xsense,-0.0125076429162,0.00297876704631,0.561752139097,0.827205669731,-1.0,0.0,0.0,0.0,0.0,0.0,0.0,0.0,0.0,-0.00466130417599,0.00604599098229,-0.000144314644582,-1.0,0.0,0.0,0.0,0.0,0.0,0.0,0.0,0.0,-0.167367740436,-0.180581364547,9.85951248317,-1.0,0.0,0.0,0.0,0.0,0.0,0.0,0.0,0.0
1596620938297247559,1973,1596620938296788962,xsense,-0.0124976618125,0.00298713450601,0.5617456773,0.827210178559,-1.0,0.0,0.0,0.0,0.0,0.0,0.0,0.0,0.0,0.00158993513173,0.00463302870047,-0.00294191869297,-1.0,0.0,0.0,0.0,0.0,0.0,0.0,0.0,0.0,-0.19080365567,-0.156505623123,9.83349907324,-1.0,0.0,0.0,0.0,0.0,0.0,0.0,0.0,0.0
1596620938316239079,1974,1596620938315724940,xsense,-0.0125036264377,0.00297517313056,0.561756645954,0.82720268278,-1.0,0.0,0.0,0.0,0.0,0.0,0.0,0.0,0.0,-0.00315877515442,0.00299709155989,0.0014191375728,-1.0,0.0,0.0,0.0,0.0,0.0,0.0,0.0,0.0,-0.211972732036,-0.205554392186,9.80618188993,-1.0,0.0,0.0,0.0,0.0,0.0,0.0,0.0,0.0
1596620938318943214,1975,1596620938318497765,xsense,-0.0124955124422,0.00297291423487,0.561749973019,0.827207345085,-1.0,0.0,0.0,0.0,0.0,0.0,0.0,0.0,0.0,8.77100917249e-05,0.00308517635356,-0.00302178629826,-1.0,0.0,0.0,0.0,0.0,0.0,0.0,0.0,0.0,-0.164349572723,-0.179976188195,9.8108492526,-1.0,0.0,0.0,0.0,0.0,0.0,0.0,0.0,0.0
1596620938335937449,1976,1596620938335426535,xsense,-0.0124995092591,0.00297087203484,0.561755486996,0.827203547513,-1.0,0.0,0.0,0.0,0.0,0.0,0.0,0.0,0.0,-0.00159062571611,0.00456046279121,-2.5455647934e-05,-1.0,0.0,0.0,0.0,0.0,0.0,0.0,0.0,0.0,-0.191142897572,-0.181213513067,9.8330378865,-1.0,0.0,0.0,0.0,0.0,0.0,0.0,0.0,0.0
1596620938337932166,1977,1596620938337303767,xsense,-0.0124916020184,0.00296845874806,0.561755121578,0.827203923778,-1.0,0.0,0.0,0.0,0.0,0.0,0.0,0.0,0.0,2.18002622777e-05,0.00306969993319,-0.00149723751002,-1.0,0.0,0.0,0.0,0.0,0.0,0.0,0.0,0.0,-0.188701071408,-0.205196358423,9.8082753387,-1.0,0.0,0.0,0.0,0.0,0.0,0.0,0.0,0.0
1596620938356139655,1978,1596620938355561760,xsense,-0.0124841946637,0.0029653617202,0.561755626556,0.827203703779,-1.0,0.0,0.0,0.0,0.0,0.0,0.0,0.0,0.0,2.17997045391e-05,0.00306970246662,-0.00149723833148,-1.0,0.0,0.0,0.0,0.0,0.0,0.0,0.0,0.0,-0.215421601684,-0.206358908709,9.8304640343,-1.0,0.0,0.0,0.0,0.0,0.0,0.0,0.0,0.0
1596620938357678911,1979,1596620938357288280,xsense,-0.0124933693135,0.00296030480473,0.561761028133,0.827199915129,-1.0,0.0,0.0,0.0,0.0,0.0,0.0,0.0,0.0,-0.00311505515222,0.00453960555599,-9.19433956433e-05,-1.0,0.0,0.0,0.0,0.0,0.0,0.0,0.0,0.0,-0.168582938004,-0.156380204631,9.83557378364,-1.0,0.0,0.0,0.0,0.0,0.0,0.0,0.0,0.0
1596620938375743514,1980,1596620938375201977,xsense,-0.0124989794387,0.00297605491033,0.561761739435,0.82719929081,-1.0,0.0,0.0,0.0,0.0,0.0,0.0,0.0,0.0,-4.45099606031e-05,0.00765103350221,-0.00145619939003,-1.0,0.0,0.0,0.0,0.0,0.0,0.0,0.0,0.0,-0.190673926507,-0.181106752177,9.80868118303,-1.0,0.0,0.0,0.0,0.0,0.0,0.0,0.0,0.0
1596620938377184417,1981,1596620938376998742,xsense,-0.0124910719559,0.00297364170469,0.561761374197,0.827199666971,-1.0,0.0,0.0,0.0,0.0,0.0,0.0,0.0,0.0,2.18647443345e-05,0.00306973744947,-0.0014971921234,-1.0,0.0,0.0,0.0,0.0,0.0,0.0,0.0,0.0,-0.192603376555,-0.206007131481,9.83255150295,-1.0,0.0,0.0,0.0,0.0,0.0,0.0,0.0,0.0
1596620938396935258,1982,1596620938396337768,xsense,-0.0124840637605,0.00297049347066,0.561761288648,0.827199842177,-1.0,0.0,0.0,0.0,0.0,0.0,0.0,0.0,0.0,2.18641856974e-05,0.00306973998828,-0.00149719294621,-1.0,0.0,0.0,0.0,0.0,0.0,0.0,0.0,0.0,-0.193609937352,-0.181607975444,9.83298234241,-1.0,0.0,0.0,0.0,0.0,0.0,0.0,0.0,0.0
1596620938398268905,1983,1596620938397892093,xsense,-0.0124824035812,0.0029637079579,0.561760671922,0.827200310395,-1.0,0.0,0.0,0.0,0.0,0.0,0.0,0.0,0.0,-0.00150248939906,0.00304886488799,-0.00156376827748,-1.0,0.0,0.0,0.0,0.0,0.0,0.0,0.0,0.0,-0.19531502978,-0.206580397888,9.85685538231,-1.0,0.0,0.0,0.0,0.0,0.0,0.0,0.0,0.0
1596620938400972757,1984,1596620938400473480,xsense,-0.0124793992697,0.00296756591224,0.561754654578,0.827204428304,-1.0,0.0,0.0,0.0,0.0,0.0,0.0,0.0,0.0,6.58851924996e-05,0.00461240998754,-0.00300801517268,-1.0,0.0,0.0,0.0,0.0,0.0,0.0,0.0,0.0,-0.167143698958,-0.204993576416,9.81034158125,-1.0,0.0,0.0,0.0,0.0,0.0,0.0,0.0,0.0
1596620938417940162,1985,1596620938417756138,xsense,-0.0124716998733,0.00296499743122,0.561760596669,0.827200518328,-1.0,0.0,0.0,0.0,0.0,0.0,0.0,0.0,0.0,-4.43706230101e-05,0.0030542109084,2.73417081091e-05,-1.0,0.0,0.0,0.0,0.0,0.0,0.0,0.0,0.0,-0.193246766693,-0.156863758357,9.80907886644,-1.0,0.0,0.0,0.0,0.0,0.0,0.0,0.0,0.0
1596620938420809050,1986,1596620938420343506,xsense,-0.012469422884,0.00296810711511,0.561759122272,0.82720154278,-1.0,0.0,0.0,0.0,0.0,0.0,0.0,0.0,0.0,-3.13513668182e-07,0.00459686998793,-0.00148350239313,-1.0,0.0,0.0,0.0,0.0,0.0,0.0,0.0,0.0,-0.194320200914,-0.206164101354,9.83251443372,-1.0,0.0,0.0,0.0,0.0,0.0,0.0,0.0,0.0
1596620938447085608,1987,1596620938446562687,xsense,-0.012461723992,0.0029655383404,0.561765064234,0.827197632748,-1.0,0.0,0.0,0.0,0.0,0.0,0.0,0.0,0.0,-4.43950242197e-05,0.00305421566604,2.73390431877e-05,-1.0,0.0,0.0,0.0,0.0,0.0,0.0,0.0,0.0,-0.195404388747,-0.181767877585,9.83294389155,-1.0,0.0,0.0,0.0,0.0,0.0,0.0,0.0,0.0
1596620938448208982,1988,1596620938447836297,xsense,-0.0124817461137,0.00296251773016,0.56175942283,0.82720117285,-1.0,0.0,0.0,0.0,0.0,0.0,0.0,0.0,0.0,-0.00452922830113,0.00607677469301,-0.00319449169806,-1.0,0.0,0.0,0.0,0.0,0.0,0.0,0.0,0.0,-0.193020432721,-0.205897985584,9.80817658539,-1.0,0.0,0.0,0.0,0.0,0.0,0.0,0.0,0.0
1596620938466520993,1989,1596620938466233013,xsense,-0.0124738395186,0.0029601047387,0.561759057834,0.827201548626,-1.0,0.0,0.0,0.0,0.0,0.0,0.0,0.0,0.0,2.19012199945e-05,0.00306980819428,-0.00149710442919,-1.0,0.0,0.0,0.0,0.0,0.0,0.0,0.0,0.0,-0.174105635539,-0.182050651098,9.8593687802,-1.0,0.0,0.0,0.0,0.0,0.0,0.0,0.0,0.0
1596620938467928415,1990,1596620938467298287,xsense,-0.0124652843053,0.00296777779727,0.56176566415,0.827197163658,-1.0,0.0,0.0,0.0,0.0,0.0,0.0,0.0,0.0,0.00145763833125,0.00460228959341,0.00010788988483,-1.0,0.0,0.0,0.0,0.0,0.0,0.0,0.0,0.0,-0.218860970833,-0.182322397313,9.80645964054,-1.0,0.0,0.0,0.0,0.0,0.0,0.0,0.0,0.0
1596620938486492399,1991,1596620938486278301,xsense,-0.0124677974894,0.00296740294299,0.561758700925,0.827201855946,-1.0,0.0,0.0,0.0,0.0,0.0,0.0,0.0,0.0,-0.00145823495206,0.00459153905401,-0.00307476636603,-1.0,0.0,0.0,0.0,0.0,0.0,0.0,0.0,0.0,-0.197121084909,-0.182153612247,9.83290248915,-1.0,0.0,0.0,0.0,0.0,0.0,0.0,0.0,0.0
1596620938486869125,1992,1596620938486657920,xsense,-0.0124668492586,0.00295969197949,0.561759739163,0.827201192787,-1.0,0.0,0.0,0.0,0.0,0.0,0.0,0.0,0.0,-0.00150241742717,0.00304884051668,-0.00156396212479,-1.0,0.0,0.0,0.0,0.0,0.0,0.0,0.0,0.0,-0.175305532129,-0.182131559067,9.85934602411,-1.0,0.0,0.0,0.0,0.0,0.0,0.0,0.0,0.0
1596620938496894135,1993,1596620938496559549,xsense,-0.0124697795231,0.00295900457028,0.561765390563,0.827197313134,-1.0,0.0,0.0,0.0,0.0,0.0,0.0,0.0,0.0,-0.00159115246141,0.0045603558195,-2.5748206126e-05,-1.0,0.0,0.0,0.0,0.0,0.0,0.0,0.0,0.0,-0.194326990494,-0.15705980175,9.78468777251,-1.0,0.0,0.0,0.0,0.0,0.0,0.0,0.0,0.0
1596620938497691988,1994,1596620938497449350,xsense,-0.0124628286222,0.00295554924697,0.561765589092,0.827197295416,-1.0,0.0,0.0,0.0,0.0,0.0,0.0,0.0,0.0,2.19536958425e-05,0.0030698471582,-0.00149706005715,-1.0,0.0,0.0,0.0,0.0,0.0,0.0,0.0,0.0,-0.198238890688,-0.182536069097,9.83287292384,-1.0,0.0,0.0,0.0,0.0,0.0,0.0,0.0,0.0
1596620938525536668,1995,1596620938525153283,xsense,-0.012467624553,0.00294423427377,0.561771025367,0.82719357159,-1.0,0.0,0.0,0.0,0.0,0.0,0.0,0.0,0.0,-0.00309324017039,0.00301223581891,-0.000106434008337,-1.0,0.0,0.0,0.0,0.0,0.0,0.0,0.0,0.0,-0.198536448817,-0.182688657099,9.83286408689,-1.0,0.0,0.0,0.0,0.0,0.0,0.0,0.0,0.0
1596620938527707936,1996,1596620938527337175,xsense,-0.0124734773352,0.00296008326249,0.561771117841,0.827193363991,-1.0,0.0,0.0,0.0,0.0,0.0,0.0,0.0,0.0,-4.48826795353e-05,0.00765123163315,-0.00145578404044,-1.0,0.0,0.0,0.0,0.0,0.0,0.0,0.0,0.0,-0.174748575921,-0.182173117277,9.8349919418,-1.0,0.0,0.0,0.0,0.0,0.0,0.0,0.0,0.0
1596620938546500189,1997,1596620938546090623,xsense,-0.0124655711636,0.00295767021306,0.561770753148,0.827193739477,-1.0,0.0,0.0,0.0,0.0,0.0,0.0,0.0,0.0,2.20072854031e-05,0.00306988104198,-0.00149701403111,-1.0,0.0,0.0,0.0,0.0,0.0,0.0,0.0,0.0,-0.175273096265,-0.182176827158,9.83498253739,-1.0,0.0,0.0,0.0,0.0,0.0,0.0,0.0,0.0
1596620938548137457,1998,1596620938547835088,xsense,-0.0124476991471,0.00295283219403,0.561764318805,0.827198395601,-1.0,0.0,0.0,0.0,0.0,0.0,0.0,0.0,0.0,0.00163527235515,0.00157942576593,-0.00296821142089,-1.0,0.0,0.0,0.0,0.0,0.0,0.0,0.0,0.0,-0.176914023148,-0.206998742447,9.85885677691,-1.0,0.0,0.0,0.0,0.0,0.0,0.0,0.0,0.0
1596620938565778785,1999,1596620938565395356,xsense,-0.0124550121651,0.00295839762369,0.561769931718,0.827194453785,-1.0,0.0,0.0,0.0,0.0,0.0,0.0,0.0,0.0,-0.00161365932735,0.00608744261085,-1.21407606925e-05,-1.0,0.0,0.0,0.0,0.0,0.0,0.0,0.0,0.0,-0.198051632011,-0.182273619335,9.80851337442,-1.0,0.0,0.0,0.0,0.0,0.0,0.0,0.0,0.0
1596620938567631868,2000,1596620938567069780,xsense,-0.0124588608336,0.00295725158041,0.561768513486,0.827195363083,-1.0,0.0,0.0,0.0,0.0,0.0,0.0,0.0,0.0,-0.0015246447618,0.00457597063358,-0.00155037835388,-1.0,0.0,0.0,0.0,0.0,0.0,0.0,0.0,0.0,-0.199287229002,-0.158029417377,9.80893929405,-1.0,0.0,0.0,0.0,0.0,0.0,0.0,0.0,0.0
1596620938586142980,2001,1596620938585641452,xsense,-0.0124511646258,0.00295468113143,0.56177445598,0.827191452426,-1.0,0.0,0.0,0.0,0.0,0.0,0.0,0.0,0.0,-4.46911007829e-05,0.00305424872307,2.75004945778e-05,-1.0,0.0,0.0,0.0,0.0,0.0,0.0,0.0,0.0,-0.176054473857,-0.206734672413,9.83451331837,-1.0,0.0,0.0,0.0,0.0,0.0,0.0,0.0,0.0
1596620938587806922,2002,1596620938587312294,xsense,-0.0124596918007,0.00295976649051,0.561773102976,0.827192224719,-1.0,0.0,0.0,0.0,0.0,0.0,0.0,0.0,0.0,-0.00154696842653,0.00610310656878,-0.00153665393854,-1.0,0.0,0.0,0.0,0.0,0.0,0.0,0.0,0.0,-0.199393704923,-0.182587119107,9.80848035282,-1.0,0.0,0.0,0.0,0.0,0.0,0.0,0.0,0.0
1596620938605928176,2003,1596620938605377248,xsense,-0.0124455401604,0.0029617262489,0.56177299235,0.827192505874,-1.0,0.0,0.0,0.0,0.0,0.0,0.0,0.0,0.0,0.00154639432224,0.0030909887256,-0.00142976377262,-1.0,0.0,0.0,0.0,0.0,0.0,0.0,0.0,0.0,-0.201977088413,-0.183090794167,9.83278653432,-1.0,0.0,0.0,0.0,0.0,0.0,0.0,0.0,0.0
1596620938607449885,2004,1596620938607062684,xsense,-0.012457752223,0.00294532136252,0.561778182324,0.827188855919,-1.0,0.0,0.0,0.0,0.0,0.0,0.0,0.0,0.0,-0.00461770741926,0.00299102883754,-0.000174194526388,-1.0,0.0,0.0,0.0,0.0,0.0,0.0,0.0,0.0,-0.202274636231,-0.183243412613,9.83277757558,-1.0,0.0,0.0,0.0,0.0,0.0,0.0,0.0,0.0
